timestamp,roll,pitch,yaw,altitude,roll_setpoint,pitch_setpoint,yaw_setpoint
1733388380171029,1.348824584091643e-05,2.8278269770847776e-06,2.878346096153619e-06,0.8055279850959778,0.0,0.0,0.0
1733388380246619,1.2348711020768617e-05,2.5888075418156303e-06,2.8783463426568044e-06,0.820953905582428,0.0,0.0,0.0
1733388380302542,1.0595709613125062e-05,2.2211659859701985e-06,2.878346642512838e-06,0.8224815726280212,0.0,0.0,0.0
1733388380349106,9.160717972297177e-06,1.9202488887147075e-06,2.8783468517496575e-06,0.8185831904411316,0.0,0.0,0.0
1733388380395144,7.66821416643211e-06,1.607293260391255e-06,2.878347051686064e-06,0.8168908357620239,0.0,0.0,0.0
1733388380439020,5.5550458160306375e-06,1.1642246135434252e-06,2.878347320923589e-06,0.8215026259422302,0.0,0.0,0.0
1733388380511410,4.027823011458582e-06,8.440315819554152e-07,2.8783475139159335e-06,0.8100156188011169,0.0,0.0,0.0
1733388380596466,2.1138897154301173e-06,4.427853561065218e-07,2.8783477628945408e-06,0.8106763958930969,0.0,0.0,0.0
1733388380669208,7.82970444910639e-07,1.6378141626005603e-07,2.878347946110434e-06,0.8186420202255249,0.0,0.0,0.0
1733388380742439,-4.592255517500812e-07,-9.660909908273375e-08,2.8783481297804494e-06,0.8199597597122192,0.0,0.0,0.0
1733388380786938,-1.4857262961591494e-06,-3.1177250383049984e-07,2.8783482959066056e-06,0.8271556496620178,0.0,0.0,0.0
1733388380867135,-2.6278357464432133e-06,-5.511492624169719e-07,2.878348506496229e-06,0.8022975921630859,0.0,0.0,0.0
1733388380933123,-3.2867301068359287e-06,-6.892335688936981e-07,2.8783486502803308e-06,0.8152783513069153,0.0,0.0,0.0
1733388380990698,-3.8319228613572915e-06,-8.034744168331335e-07,2.8783487949464515e-06,0.8175875544548035,0.0,0.0,0.0
1733388381063439,-4.297289707101157e-06,-9.009621872885894e-07,2.87834896721122e-06,0.8071144819259644,0.0,0.0,0.0
1733388381131028,-4.478305009387204e-06,-9.388563696774915e-07,2.878349085719633e-06,0.8319013714790344,0.0,0.0,0.0
1733388381188245,-4.51161619085114e-06,-9.457688174294612e-07,2.8783492334377727e-06,0.8263019919395447,0.0,0.0,0.0
1733388381228992,-4.400774981803714e-06,-9.224853082435078e-07,2.878349328668931e-06,0.8225656151771545,0.0,0.0,0.0
1733388381294308,-4.0913755400074786e-06,-8.57564778495223e-07,2.878349448792129e-06,0.8163846731185913,0.0,0.0,0.0
1733388381347271,-3.7596647335446524e-06,-7.879872967847648e-07,2.8783495313750664e-06,0.8237826228141785,0.0,0.0,0.0
1733388381404829,-3.3601109049210225e-06,-7.04192871886937e-07,2.8783496084270876e-06,0.8166359066963196,0.0,0.0,0.0
1733388381466594,-2.700997678573615e-06,-5.659811069815331e-07,2.8783497107295886e-06,0.8197534084320068,0.0,0.0,0.0
1733388381521613,-2.202544099219046e-06,-4.6146823997521347e-07,2.878349777331536e-06,0.8174142837524414,0.0,0.0,0.0
1733388381590029,-1.6893813768192588e-06,-3.5387789910864017e-07,2.8783498406087134e-06,0.8019964694976807,0.0,0.0,0.0
1733388381646118,-9.553789971315113e-07,-1.9999629886655328e-07,2.878349926246181e-06,0.8308764100074768,0.0,0.0,0.0
1733388381710030,-3.973416020353436e-07,-8.301307651663266e-08,2.8783499901480583e-06,0.8161498308181763,0.0,0.0,0.0
1733388381765844,5.049543203725788e-08,1.0863301041437796e-08,2.8783500421406457e-06,0.8192232251167297,0.0,0.0,0.0
1733388381832344,5.18088155289839e-07,1.0887521386364445e-07,2.8783500985370624e-06,0.8125137686729431,0.0,0.0,0.0
1733388381892628,9.087424718584613e-07,1.907545680293327e-07,2.878350148818027e-06,0.8217226266860962,0.0,0.0,0.0
1733388381968669,1.3339958564656187e-06,2.798775942221866e-07,2.8783502097712357e-06,0.8259398937225342,0.0,0.0,0.0
1733388382026290,1.590422080726533e-06,3.336119309244896e-07,2.878350252539456e-06,0.8310046195983887,0.0,0.0,0.0
1733388382110341,1.8513842716125064e-06,3.882866074756252e-07,2.878350306883057e-06,0.8110684752464294,0.0,0.0,0.0
1733388382206391,1.980523586068975e-06,4.1533329971291386e-07,2.8783503448597072e-06,0.8141265511512756,0.0,0.0,0.0
1733388382278511,2.051477439768256e-06,4.3018285972601227e-07,2.8783503791331556e-06,0.8186025619506836,0.0,0.0,0.0
1733388382430062,2.0264704877537778e-06,4.24883871071045e-07,2.8783504511910968e-06,0.8162184953689575,0.0,0.0,0.0
1733388382509947,1.944989979732776e-06,4.077807890024401e-07,2.878350478170658e-06,0.812617838382721,0.0,0.0,0.0
1733388382610515,1.7787137048695087e-06,3.7289637309127916e-07,2.8783505121387083e-06,0.8248888254165649,0.0,0.0,0.0
1733388382664420,1.624391769829274e-06,3.405277143958448e-07,2.878350535096433e-06,0.8372250199317932,0.0,0.0,0.0
1733388382740931,1.4057253950647345e-06,2.946692965999205e-07,2.8783505614725067e-06,0.8085108995437622,0.0,0.0,0.0
1733388382821042,1.1926269159759206e-06,2.4998315719505785e-07,2.8783505833992124e-06,0.8206055164337158,0.0,0.0,0.0
1733388382918847,9.225009700940421e-07,1.9334320339449446e-07,2.8783506082025906e-06,0.8223826885223389,0.0,0.0,0.0
1733388382988693,7.251347791428622e-07,1.5196222768805354e-07,2.8783506250951178e-06,0.8281741142272949,0.0,0.0,0.0
1733388383048335,5.247705849511262e-07,1.0995480568095699e-07,2.8783506416901678e-06,0.8198044896125793,0.0,0.0,0.0
1733388383114169,2.6465708751916614e-07,5.542379012788123e-08,2.8783506630245522e-06,0.8340094685554504,0.0,0.0,0.0
1733388383218478,2.3087755939424366e-08,4.783909805765303e-09,2.878350683364205e-06,0.8141013383865356,0.0,0.0,0.0
1733388383260480,-9.083280357376777e-08,-1.909574610979281e-08,2.8783506934316162e-06,0.8271558284759521,0.0,0.0,0.0
1733388383350275,-2.9270282425042e-07,-6.140822484708728e-08,2.878350712807848e-06,0.8282787203788757,0.0,0.0,0.0
1733388383412804,-4.0880934994534815e-07,-8.574206706998228e-08,2.878350725618005e-06,0.8374605774879456,0.0,0.0,0.0
1733388383476554,-5.036594456500707e-07,-1.0561868544416774e-07,2.8783507380107735e-06,0.8309956789016724,0.0,0.0,0.0
1733388383575811,-5.862681072284403e-07,-1.229264567189932e-07,2.878350752291966e-06,0.8261812925338745,0.0,0.0,0.0
1733388383641330,-6.227248163252452e-07,-1.305615381823909e-07,2.878350761991843e-06,0.8221091032028198,0.0,0.0,0.0
1733388383711471,-6.400352577390407e-07,-1.3418289335398308e-07,2.8783507710903467e-06,0.8253326416015625,0.0,0.0,0.0
1733388383773775,-6.357821527367736e-07,-1.3328159742648364e-07,2.8783507823424226e-06,0.8348346948623657,0.0,0.0,0.0
1733388383819478,-6.123840953124941e-07,-1.2836929763540105e-07,2.8783507906713035e-06,0.8245024085044861,0.0,0.0,0.0
1733388383916376,-5.765867822441902e-07,-1.2085870407539405e-07,2.8783507979788283e-06,0.825555682182312,0.0,0.0,0.0
1733388384005679,-5.117013525704395e-07,-1.0724919602527225e-07,2.8783508070315463e-06,0.8091062307357788,0.0,0.0,0.0
1733388384070615,-4.4883238496045584e-07,-9.406483351038753e-08,2.8783508137551714e-06,0.8200953006744385,0.0,0.0,0.0
1733388384116905,-3.8134503744694493e-07,-7.991333471563461e-08,2.878350819868539e-06,0.8296818137168884,0.0,0.0,0.0
1733388384180459,-3.0501809748191785e-07,-6.390949163982518e-08,2.8783508259791185e-06,0.8362103700637817,0.0,0.0,0.0
1733388384253842,-2.1005659029180455e-07,-4.399990476281275e-08,2.8783508328830634e-06,0.8319559097290039,0.0,0.0,0.0
1733388384354833,-1.372020638710686e-07,-2.8726228828571376e-08,2.8783508378843262e-06,0.8316395282745361,0.0,0.0,0.0
1733388384478669,-6.695977316088874e-08,-1.4000980705387336e-08,2.8783508426019038e-06,0.8297504186630249,0.0,0.0,0.0
1733388384550141,1.1648169297580177e-09,2.7954353557184467e-10,2.8783508471913197e-06,0.8312150835990906,0.0,0.0,0.0
1733388384616886,6.527152057261302e-08,1.371701558868054e-08,2.878350851641781e-06,0.8305571675300598,0.0,0.0,0.0
1733388384700149,1.3441793754395587e-07,2.820973106369526e-08,2.878350856793139e-06,0.8350769877433777,0.0,0.0,0.0
1733388384780960,1.793136375053662e-07,3.761871432184638e-08,2.8783508605374258e-06,0.8270425796508789,0.0,0.0,0.0
1733388384833111,2.2255157263783873e-07,4.6679100242588935e-08,2.878350864790595e-06,0.8319832682609558,0.0,0.0,0.0
1733388384906014,2.477383836207042e-07,5.1955867057408835e-08,2.8783508679403578e-06,0.8210822343826294,0.0,0.0,0.0
1733388384997599,2.644640193952986e-07,5.545886764670712e-08,2.8783508708038746e-06,0.8312255144119263,0.0,0.0,0.0
1733388385062567,2.7483076053183514e-07,5.76282432712301e-08,2.8783508739274602e-06,0.818463921546936,0.0,0.0,0.0
1733388385140738,2.7622721186406464e-07,5.7917527652031935e-08,2.878350876590632e-06,0.8267110586166382,0.0,0.0,0.0
1733388385213068,2.6850576898297174e-07,5.6294827776167534e-08,2.8783508796046605e-06,0.8254417181015015,0.0,0.0,0.0
1733388385266279,2.563852245180409e-07,5.375107212632448e-08,2.878350881762075e-06,0.8283756375312805,0.0,0.0,0.0
1733388385335590,2.3844457999926605e-07,4.9987298808043735e-08,2.878350883920313e-06,0.8344638347625732,0.0,0.0,0.0
1733388385391878,2.1016891407659736e-07,4.4056700639637075e-08,2.8783508864264453e-06,0.8399397134780884,0.0,0.0,0.0
1733388385453570,1.8575805847463805e-07,3.893742163186712e-08,2.8783508881771904e-06,0.8324838876724243,0.0,0.0,0.0
1733388385542821,1.495388730189902e-07,3.134253133785433e-08,2.8783508904063117e-06,0.8273019790649414,0.0,0.0,0.0
1733388385602554,1.2287589916976184e-07,2.5751938687822485e-08,2.878350891877467e-06,0.8413851261138916,0.0,0.0,0.0
1733388385648868,9.516362760656922e-08,1.9941656793663082e-08,2.8783508933139925e-06,0.8310006856918335,0.0,0.0,0.0
1733388385718366,5.734789412219953e-08,1.2013525905461894e-08,2.878350895189405e-06,0.8309386372566223,0.0,0.0,0.0
1733388385795112,3.0979705968408545e-08,6.485725073838143e-09,2.8783508964788997e-06,0.8318623304367065,0.0,0.0,0.0
1733388385879280,-1.7988918516621843e-10,-4.615275007417948e-11,2.8783508980321472e-06,0.819081723690033,0.0,0.0,0.0
1733388385951238,-2.094712869217572e-08,-4.3992380015820185e-09,2.878350899120153e-06,0.8299955129623413,0.0,0.0,0.0
1733388386036614,-3.917518502281709e-08,-8.219837055301272e-09,2.8783509001459853e-06,0.8331173062324524,0.0,0.0,0.0
1733388386102116,-5.8776660945994693e-08,-1.2327940560391777e-08,2.8783509013917776e-06,0.8357241153717041,0.0,0.0,0.0
1733388386177299,-7.227425461096452e-08,-1.5156409093630514e-08,2.878350902430229e-06,0.8195788264274597,0.0,0.0,0.0
1733388386257160,-8.074751484295201e-08,-1.6931682982302815e-08,2.8783509032639885e-06,0.8343469500541687,0.0,0.0,0.0
1733388386313991,-8.795098278902623e-08,-1.844030256820725e-08,2.878350904349373e-06,0.8363223075866699,0.0,0.0,0.0
1733388386382367,-8.99262063050754e-08,-1.885335742945834e-08,2.8783509050464965e-06,0.8373758792877197,0.0,0.0,0.0
1733388386427050,-8.96024380080203e-08,-1.878445713193924e-08,2.8783509057255743e-06,0.8337215185165405,0.0,0.0,0.0
1733388386502065,-8.554603927037218e-08,-1.7932748109969164e-08,2.8783509066091415e-06,0.8392338752746582,0.0,0.0,0.0
1733388386590958,-8.023907860376229e-08,-1.6819325856478507e-08,2.8783509072145443e-06,0.8250223398208618,0.0,0.0,0.0
1733388386647010,-7.13116414019678e-08,-1.494683649251451e-08,2.878350907924117e-06,0.8409473299980164,0.0,0.0,0.0
1733388386751481,-6.225187159213731e-08,-1.3046897263244997e-08,2.878350908482469e-06,0.8370348215103149,0.0,0.0,0.0
1733388386816874,-5.3169956174094683e-08,-1.1142497751429281e-08,2.8783509089589968e-06,0.8389807343482971,0.0,0.0,0.0
1733388386936614,-4.390606678028164e-08,-9.200077817436413e-09,2.878350909393321e-06,0.8303908705711365,0.0,0.0,0.0
1733388387020021,-3.048107223914006e-08,-6.3853700367502485e-09,2.8783509099662363e-06,0.8370236158370972,0.0,0.0,0.0
1733388387084288,-2.363990087090087e-08,-4.951118667332114e-09,2.878350910242167e-06,0.8325794339179993,0.0,0.0,0.0
1733388387160297,-8.900200106894699e-09,-1.861119239300239e-09,2.8783509108197986e-06,0.8367578983306885,0.0,0.0,0.0
1733388387193780,6.61996700756684e-10,1.433404579304485e-10,2.8783509111945124e-06,0.8332852125167847,0.0,0.0,0.0
1733388387255837,8.587112388031953e-09,1.8045325990920034e-09,2.8783509115145896e-06,0.8301274180412292,0.0,0.0,0.0
1733388387321977,1.8011717347421282e-08,3.7798859638403395e-09,2.878350911922359e-06,0.8347693085670471,0.0,0.0,0.0
1733388387391240,2.3939431503283448e-08,5.022188624699843e-09,2.878350912209332e-06,0.8338642120361328,0.0,0.0,0.0
1733388387484861,2.8910414665524135e-08,6.063867453043004e-09,2.878350912487499e-06,0.8249485492706299,0.0,0.0,0.0
1733388387558738,3.3542921273953116e-08,7.034425646328069e-09,2.87835091281878e-06,0.8371484279632568,0.0,0.0,0.0
1733388387596383,3.571255735438214e-08,7.488816764936212e-09,2.8783509130444357e-06,0.8362694978713989,0.0,0.0,0.0
1733388387638566,3.6869211727573894e-08,7.730863326081317e-09,2.8783509132499607e-06,0.8473268151283264,0.0,0.0,0.0
1733388387712779,3.7050465345936055e-08,7.768281620599862e-09,2.878350913514384e-06,0.824383556842804,0.0,0.0,0.0
1733388387804781,3.6084098625091686e-08,7.565244138145585e-09,2.8783509137169956e-06,0.8298031091690063,0.0,0.0,0.0
1733388387892194,3.410182437882453e-08,7.149245327812317e-09,2.878350913917625e-06,0.8340437412261963,0.0,0.0,0.0
1733388387940079,3.174016213702348e-08,6.653813626590426e-09,2.8783509140786723e-06,0.8386334180831909,0.0,0.0,0.0
1733388387999261,2.846749287649437e-08,5.9674039514969e-09,2.8783509142498157e-06,0.8323926329612732,0.0,0.0,0.0
1733388388077905,2.4015489962694814e-08,5.033773773613907e-09,2.878350914436764e-06,0.84514319896698,0.0,0.0,0.0
1733388388153976,2.039588966109356e-08,4.274779757214009e-09,2.8783509145674764e-06,0.8370863795280457,0.0,0.0,0.0
1733388388235512,1.5392675791195883e-08,3.22573522719822e-09,2.8783509147300233e-06,0.8463432192802429,0.0,0.0,0.0
1733388388296392,1.0394404776657612e-08,2.1778043995268674e-09,2.8783509148801277e-06,0.8335198163986206,0.0,0.0,0.0
1733388388369799,7.961018215490018e-09,1.6676498690551217e-09,2.8783509149508206e-06,0.8276916146278381,0.0,0.0,0.0
1733388388435022,3.2260592520277014e-09,6.750251179248069e-10,2.8783509150872446e-06,0.8381192684173584,0.0,0.0,0.0
1733388388497952,5.238408942307404e-11,9.744148756560469e-12,2.878350915180253e-06,0.8376826643943787,0.0,0.0,0.0
1733388388601823,-2.907715587173974e-09,-6.107312967632046e-10,2.8783509152707047e-06,0.827075183391571,0.0,0.0,0.0
1733388388683966,-6.181127145964734e-09,-1.2968294661136924e-09,2.8783509153794574e-06,0.8444637656211853,0.0,0.0,0.0
1733388388752915,-8.13854482754736e-09,-1.7070610405545584e-09,2.8783509154530455e-06,0.8423680067062378,0.0,0.0,0.0
1733388388833862,-1.0284938931568863e-08,-2.156839677469379e-09,2.878350915550063e-06,0.8451847434043884,0.0,0.0,0.0
1733388388905449,-1.1424438446356488e-08,-2.395570653606904e-09,2.8783509156183025e-06,0.8336620926856995,0.0,0.0,0.0
1733388388998478,-1.2158743796004975e-08,-2.5493541888036507e-09,2.8783509156824254e-06,0.8360050320625305,0.0,0.0,0.0
1733388389075699,-1.2543719183829512e-08,-2.629857175826946e-09,2.8783509157613227e-06,0.8319674730300903,0.0,0.0,0.0
1733388389130571,-1.2501224637964613e-08,-2.6208485755523057e-09,2.8783509157992846e-06,0.8384063243865967,0.0,0.0,0.0
1733388389234496,-1.1945968130139528e-08,-2.5042494120972176e-09,2.8783509158738104e-06,0.8337827920913696,0.0,0.0,0.0
1733388389291187,-1.1225631950100494e-08,-2.35311562511614e-09,2.878350915922497e-06,0.8444049954414368,0.0,0.0,0.0
1733388389362012,-1.0315528272668568e-08,-2.162216964896506e-09,2.8783509159668138e-06,0.8254331946372986,0.0,0.0,0.0
1733388389428883,-8.847339990786396e-09,-1.8543103002063655e-09,2.878350916021904e-06,0.8469359278678894,0.0,0.0,0.0
1733388389490538,-7.608033871168284e-09,-1.5944341601934477e-09,2.878350916060419e-06,0.8378715515136719,0.0,0.0,0.0
1733388389555676,-5.846793693311913e-09,-1.2251425441406018e-09,2.878350916108307e-06,0.8325719833374023,0.0,0.0,0.0
1733388389620645,-4.492742906187457e-09,-9.412491961064555e-10,2.8783509161417913e-06,0.8351455330848694,0.0,0.0,0.0
1733388389743363,-2.6644475192322076e-09,-5.579488881943473e-10,2.87835091618443e-06,0.8475571870803833,0.0,0.0,0.0
1733388389785592,-1.4247577188980659e-09,-2.980646396926989e-10,2.8783509162125503e-06,0.8450137972831726,0.0,0.0,0.0
1733388389851694,-1.7873602401526745e-10,-3.686644835823489e-11,2.878350916240864e-06,0.8508860468864441,0.0,0.0,0.0
1733388389949783,1.2708733298561023e-09,2.6698921908559336e-10,2.8783509162749025e-06,0.8446906208992004,0.0,0.0,0.0
1733388390036384,2.450414013238965e-09,5.142147245710486e-10,2.878350916304816e-06,0.8427629470825195,0.0,0.0,0.0
1733388390093178,3.2537804335449458e-09,6.825805509121603e-10,2.87835091632759e-06,0.830059826374054,0.0,0.0,0.0
1733388390147019,3.94337105793764e-09,8.270851185883916e-10,2.878350916350331e-06,0.8397930264472961,0.0,0.0,0.0
1733388390206904,4.510424347861424e-09,9.458889966896631e-10,2.878350916374103e-06,0.8452062606811523,0.0,0.0,0.0
1733388390281493,4.820057285044672e-09,1.010737539915304e-09,2.8783509163927066e-06,0.8493342399597168,0.0,0.0,0.0
1733388390353014,4.985275649733672e-09,1.0453113160953488e-09,2.878350916410189e-06,0.8446201682090759,0.0,0.0,0.0
1733388390419690,5.0094977887576115e-09,1.0503207666328313e-09,2.8783509164286627e-06,0.8353406190872192,0.0,0.0,0.0
1733388390516448,4.834923826432258e-09,1.0136464808200372e-09,2.878350916449186e-06,0.8351139426231384,0.0,0.0,0.0
1733388390585677,4.582832248445497e-09,9.607467980050244e-10,2.8783509164632615e-06,0.8380687832832336,0.0,0.0,0.0
1733388390675132,4.231152422816801e-09,8.869735020934073e-10,2.8783509164769017e-06,0.844257652759552,0.0,0.0,0.0
1733388390714964,3.832994779985349e-09,8.03465391582235e-10,2.87835091648892e-06,0.8461048007011414,0.0,0.0,0.0
1733388390781268,3.225643771236919e-09,6.760986047137388e-10,2.8783509165038585e-06,0.8434270024299622,0.0,0.0,0.0
1733388390822087,2.6983677134951685e-09,5.655350284513484e-10,2.8783509165149788e-06,0.8383703231811523,0.0,0.0,0.0
1733388390914246,2.0328345235184034e-09,4.259911641845696e-10,2.8783509165276034e-06,0.8343790173530579,0.0,0.0,0.0
1733388391006819,1.5207015463893657e-09,3.1861792401280584e-10,2.8783509165366666e-06,0.8396924138069153,0.0,0.0,0.0
1733388391096203,8.436569880718509e-10,1.7667803134870932e-10,2.8783509165482053e-06,0.8394842743873596,0.0,0.0,0.0
1733388391141919,3.93399451748683e-10,8.228871232288941e-11,2.878350916555815e-06,0.8396068811416626,0.0,0.0,0.0
1733388391195685,-7.904739769854436e-11,-1.674697016934916e-11,2.8783509165639546e-06,0.8468718528747559,0.0,0.0,0.0
1733388391269762,-5.004428632803507e-10,-1.0507563060273961e-10,2.878350916571574e-06,0.8554059863090515,0.0,0.0,0.0
1733388391331040,-8.539809708738296e-10,-1.7917545533819984e-10,2.878350916578497e-06,0.8557639122009277,0.0,0.0,0.0
1733388391404286,-1.149170730398084e-09,-2.410403751850125e-10,2.878350916584991e-06,0.8451345562934875,0.0,0.0,0.0
1733388391458157,-1.433047537934973e-09,-3.0052629327303836e-10,2.878350916592544e-06,0.8365085124969482,0.0,0.0,0.0
1733388391524904,-1.5919242706544668e-09,-3.3381116477839214e-10,2.8783509165981667e-06,0.8376263380050659,0.0,0.0,0.0
1733388391603904,-1.7061998515032127e-09,-3.577406443551076e-10,2.8783509166045487e-06,0.8389655947685242,0.0,0.0,0.0
1733388391666301,-1.7384116643472932e-09,-3.644722800002684e-10,2.8783509166092785e-06,0.8455850481987,0.0,0.0,0.0
1733388391727827,-1.7313683784098214e-09,-3.6298053126865053e-10,2.878350916612602e-06,0.8389524817466736,0.0,0.0,0.0
1733388391809519,-1.6600605603379144e-09,-3.480062911879686e-10,2.8783509166181592e-06,0.8499636054039001,0.0,0.0,0.0
1733388391876892,-1.5283876612898317e-09,-3.203806484084313e-10,2.8783509166231593e-06,0.8493825197219849,0.0,0.0,0.0
1733388391940214,-1.3729556337864711e-09,-2.8777968225168756e-10,2.878350916627217e-06,0.8285072445869446,0.0,0.0,0.0
1733388392007429,-1.2168698137540043e-09,-2.55046273604442e-10,2.878350916630476e-06,0.8483713269233704,0.0,0.0,0.0
1733388392064542,-1.0337524519081816e-09,-2.1664765235594899e-10,2.878350916633743e-06,0.8541833162307739,0.0,0.0,0.0
1733388392149738,-7.904965672542781e-10,-1.6564271424110093e-10,2.878350916637542e-06,0.8431026935577393,0.0,0.0,0.0
1733388392229140,-6.043050178044111e-10,-1.2660550871449285e-10,2.878350916640199e-06,0.8488962650299072,0.0,0.0,0.0
1733388392305752,-3.538618976201009e-10,-7.410050842136141e-11,2.8783509166435816e-06,0.8411049842834473,0.0,0.0,0.0
1733388392363669,-1.67660920084345e-10,-3.506618557246298e-11,2.878350916646035e-06,0.8418405652046204,0.0,0.0,0.0
1733388392417582,-9.803787114333023e-12,-1.975473991161468e-12,2.878350916648127e-06,0.8305045962333679,0.0,0.0,0.0
1733388392486562,1.951661570717078e-10,4.098841325497116e-11,2.8783509166509496e-06,0.8556973934173584,0.0,0.0,0.0
1733388392578492,3.8149777406137886e-10,8.004172649021115e-11,2.8783509166537803e-06,0.8429610133171082,0.0,0.0,0.0
1733388392643535,4.792667740331046e-10,1.0053088177056267e-10,2.8783509166554914e-06,0.8510075211524963,0.0,0.0,0.0
1733388392732335,5.832689212899382e-10,1.2232294964193066e-10,2.8783509166577203e-06,0.8506917953491211,0.0,0.0,0.0
1733388392796902,6.326909160745672e-10,1.3267586572096645e-10,2.8783509166591535e-06,0.8537819385528564,0.0,0.0,0.0
1733388392866527,6.724506916524453e-10,1.4099984644151236e-10,2.8783509166610424e-06,0.8444266319274902,0.0,0.0,0.0
1733388392932437,6.804883006259368e-10,1.4267707064908332e-10,2.878350916662288e-06,0.857542872428894,0.0,0.0,0.0
1733388393003822,6.727850882334984e-10,1.4105446596102346e-10,2.8783509166635026e-06,0.8428374528884888,0.0,0.0,0.0
1733388393094568,6.388776994301943e-10,1.3393641537470675e-10,2.878350916665049e-06,0.834502100944519,0.0,0.0,0.0
1733388393160111,5.979052758263789e-10,1.253404103769269e-10,2.878350916666137e-06,0.8430800437927246,0.0,0.0,0.0
1733388393232359,5.294734080662236e-10,1.1098708346367848e-10,2.8783509166674434e-06,0.8503404855728149,0.0,0.0,0.0
1733388393292251,4.672302842818159e-10,9.79337901567876e-11,2.8783509166683874e-06,0.8488831520080566,0.0,0.0,0.0
1733388393366046,4.0391307118564386e-10,8.465643989515368e-11,2.8783509166692192e-06,0.8512447476387024,0.0,0.0,0.0
1733388393441875,3.1190566312100096e-10,6.53644389053948e-11,2.8783509166702886e-06,0.84115070104599,0.0,0.0,0.0
1733388393505662,2.4173285784157773e-10,5.0651704016292546e-11,2.8783509166710374e-06,0.8614160418510437,0.0,0.0,0.0
1733388393574444,1.4984041068501855e-10,3.138631388726998e-11,2.878350916671968e-06,0.8563240766525269,0.0,0.0,0.0
1733388393654118,6.306835850909326e-11,1.3195636859688158e-11,2.878350916672827e-06,0.8536661863327026,0.0,0.0,0.0
1733388393694996,2.057067600011013e-11,4.286991113880903e-12,2.878350916673251e-06,0.8520366549491882,0.0,0.0,0.0
1733388393766001,-5.301272366209265e-11,-1.1137201523436324e-11,2.878350916674011e-06,0.8599112033843994,0.0,0.0,0.0
1733388393825672,-1.1542054371108142e-10,-2.4217734123301295e-11,2.8783509166747126e-06,0.8535076379776001,0.0,0.0,0.0
1733388393877954,-1.5296660702107677e-10,-3.208658552473348e-11,2.878350916675187e-06,0.8435414433479309,0.0,0.0,0.0
1733388393942465,-1.8836512678734885e-10,-3.950453242341632e-11,2.8783509166757096e-06,0.854547381401062,0.0,0.0,0.0
1733388394019369,-2.1179682918715037e-10,-4.4413937622571545e-11,2.878350916676142e-06,0.8596829175949097,0.0,0.0,0.0
1733388394087668,-2.2886561204842973e-10,-4.7989151932086264e-11,2.8783509166765757e-06,0.8536236882209778,0.0,0.0,0.0
1733388394174972,-2.3911420386183234e-10,-5.013392369153563e-11,2.8783509166770674e-06,0.8532223701477051,0.0,0.0,0.0
1733388394264263,-2.395807532473699e-10,-5.0228861136908194e-11,2.878350916677432e-06,0.8453073501586914,0.0,0.0,0.0
1733388394346839,-2.3392408532623187e-10,-4.90402905830503e-11,2.878350916677775e-06,0.8545506000518799,0.0,0.0,0.0
1733388394419400,-2.1873729381023917e-10,-4.5853365903401745e-11,2.8783509166781868e-06,0.8410335779190063,0.0,0.0,0.0
1733388394512230,-2.0124390193519e-10,-4.2183838981408556e-11,2.878350916678494e-06,0.8558980822563171,0.0,0.0,0.0
1733388394588080,-1.8070239851894084e-10,-3.7875680613380645e-11,2.878350916678772e-06,0.8414031863212585,0.0,0.0,0.0
1733388394676135,-1.5433541949215908e-10,-3.2346417225792115e-11,2.8783509166790677e-06,0.8463795781135559,0.0,0.0,0.0
1733388394737637,-1.257422059635581e-10,-2.6350865932419448e-11,2.8783509166793413e-06,0.8419315218925476,0.0,0.0,0.0
1733388394816477,-9.180403394512714e-11,-1.923512635222437e-11,2.878350916679634e-06,0.8426110148429871,0.0,0.0,0.0
1733388394891925,-6.636810450245505e-11,-1.3902375957279981e-11,2.8783509166798368e-06,0.8594601154327393,0.0,0.0,0.0
1733388394959552,-4.160901803824862e-11,-8.711795018805047e-12,2.8783509166800286e-06,0.8532224297523499,0.0,0.0,0.0
1733388395043825,-9.799551040094697e-12,-2.043546303946426e-12,2.878350916680272e-06,0.8557485938072205,0.0,0.0,0.0
1733388395131260,1.2091416277197069e-11,2.5451846366177425e-12,2.878350916680444e-06,0.8526583313941956,0.0,0.0,0.0
1733388395205168,3.69272472223017e-11,7.750845025425237e-12,2.8783509166806503e-06,0.852846086025238,0.0,0.0,0.0
1733388395266123,5.7403794687980025e-11,1.2042369344823423e-11,2.8783509166808405e-06,0.8568254113197327,0.0,0.0,0.0
1733388395334532,6.55004989457875e-11,1.3739135113460677e-11,2.878350916680927e-06,0.8500989079475403,0.0,0.0,0.0
1733388395395775,7.60887177607862e-11,1.595779640920676e-11,2.878350916681054e-06,0.8541129231452942,0.0,0.0,0.0
1733388395455394,8.60308718972485e-11,1.8040594930059547e-11,2.8783509166812136e-06,0.8451680541038513,0.0,0.0,0.0
1733388395529060,9.135323894617051e-11,1.9154883609292594e-11,2.878350916681362e-06,0.8543338179588318,0.0,0.0,0.0
1733388395583047,9.250311639087711e-11,1.939485065273845e-11,2.8783509166814643e-06,0.8490769267082214,0.0,0.0,0.0
1733388395661887,9.051137427393258e-11,1.89758892186098e-11,2.878350916681595e-06,0.8498430848121643,0.0,0.0,0.0
1733388395722600,8.675322991358745e-11,1.8187083224446102e-11,2.878350916681686e-06,0.8525037169456482,0.0,0.0,0.0
1733388395769744,8.071703105086169e-11,1.6920714432430395e-11,2.8783509166817765e-06,0.8518844246864319,0.0,0.0,0.0
1733388395845380,7.12375394946734e-11,1.4932460451502755e-11,2.8783509166818824e-06,0.8570702075958252,0.0,0.0,0.0
1733388395903884,6.26597843891189e-11,1.3133601286312058e-11,2.878350916681955e-06,0.8620305061340332,0.0,0.0,0.0
1733388395967989,5.396553443636664e-11,1.1310471486193412e-11,2.8783509166820213e-06,0.8561440706253052,0.0,0.0,0.0
1733388396050763,4.136800836590382e-11,8.669059185121241e-12,2.8783509166821085e-06,0.8487023711204529,0.0,0.0,0.0
1733388396110517,3.178568864592248e-11,6.660003250300205e-12,2.8783509166821653e-06,0.864897608757019,0.0,0.0,0.0
1733388396185777,2.2036550420652572e-11,4.616080845663049e-12,2.878350916682224e-06,0.8424494862556458,0.0,0.0,0.0
1733388396265651,1.0047981436569832e-11,2.102807130525705e-12,2.8783509166822957e-06,0.854297935962677,0.0,0.0,0.0
1733388396346764,-1.155568544576958e-12,-2.457342733525257e-13,2.878350916682358e-06,0.8627563118934631,0.0,0.0,0.0
1733388396400931,-8.685692590831494e-12,-1.8241288341702943e-12,2.878350916682405e-06,0.8568987846374512,0.0,0.0,0.0
1733388396477704,-1.5083791584009347e-11,-3.1651512907556234e-12,2.8783509166824503e-06,0.8508323431015015,0.0,0.0,0.0
1733388396562811,-2.0865433832099263e-11,-4.376868454422822e-12,2.8783509166824914e-06,0.8605353236198425,0.0,0.0,0.0
1733388396649035,-2.6627837121046278e-11,-5.584398046963819e-12,2.878350916682538e-06,0.8495448231697083,0.0,0.0,0.0
1733388396710047,-2.966109213540369e-11,-6.219898656721645e-12,2.8783509166825723e-06,0.8511223196983337,0.0,0.0,0.0
1733388396793159,-3.222943251617551e-11,-6.7577797293197994e-12,2.878350916682619e-06,0.8567567467689514,0.0,0.0,0.0
1733388396866901,-3.302580367344693e-11,-6.924323659378523e-12,2.878350916682654e-06,0.8581875562667847,0.0,0.0,0.0
1733388396924932,-3.2945708436893216e-11,-6.9071653101586185e-12,2.8783509166826777e-06,0.8645643591880798,0.0,0.0,0.0
1733388396977789,-3.210267350395012e-11,-6.73007333396035e-12,2.8783509166827006e-06,0.858672022819519,0.0,0.0,0.0
1733388397050778,-2.986345719168259e-11,-6.260201738207558e-12,2.878350916682732e-06,0.862458348274231,0.0,0.0,0.0
1733388397121629,-2.7475112104094228e-11,-5.759217866986016e-12,2.8783509166827552e-06,0.8594685196876526,0.0,0.0,0.0
1733388397192709,-2.3713502366201333e-11,-4.970320106074645e-12,2.8783509166827857e-06,0.8513556122779846,0.0,0.0,0.0
1733388397274129,-2.052625129290392e-11,-4.301957809748245e-12,2.878350916682808e-06,0.8550475239753723,0.0,0.0,0.0
1733388397343043,-1.713902347544361e-11,-3.5917147957700635e-12,2.878350916682831e-06,0.8598182201385498,0.0,0.0,0.0
1733388397413985,-1.2479448631483982e-11,-2.614753970815387e-12,2.8783509166828577e-06,0.8634202480316162,0.0,0.0,0.0
1733388397472144,-8.649500637193158e-12,-1.8117922673849644e-12,2.87835091668287e-06,0.8594235181808472,0.0,0.0,0.0
1733388397533202,-5.275389092984344e-12,-1.1044361994085353e-12,2.8783509166828814e-06,0.8627593517303467,0.0,0.0,0.0
1733388397602636,-9.590516975114582e-13,-1.9960399753676442e-13,2.878350916682897e-06,0.8658018112182617,0.0,0.0,0.0
1733388397655439,2.9725329133218125e-12,6.245111373807047e-13,2.8783509166829128e-06,0.858559787273407,0.0,0.0,0.0
1733388397712952,5.48769591542727e-12,1.1516844668979076e-12,2.8783509166829246e-06,0.8641083836555481,0.0,0.0,0.0
1733388397783015,7.573984544419074e-12,1.5889328437414186e-12,2.878350916682936e-06,0.8658537268638611,0.0,0.0,0.0
1733388397856929,9.24811855908321e-12,1.9397675269522748e-12,2.878350916682947e-06,0.8620817065238953,0.0,0.0,0.0
1733388397920023,1.069594234633997e-11,2.2431342967249133e-12,2.8783509166829594e-06,0.8512687087059021,0.0,0.0,0.0
1733388398027607,1.2436562878527512e-11,2.6076786042948975e-12,2.878350916682986e-06,0.8670164942741394,0.0,0.0,0.0
1733388398098256,1.2584104331489886e-11,2.6384119585793987e-12,2.8783509166830013e-06,0.8650485277175903,0.0,0.0,0.0
1733388398172044,1.2345960943385855e-11,2.5883479714782907e-12,2.8783509166830127e-06,0.8552646636962891,0.0,0.0,0.0
1733388398224335,1.1844074127947393e-11,2.4830028178361367e-12,2.878350916683024e-06,0.8660209774971008,0.0,0.0,0.0
1733388398295272,1.108581439454677e-11,2.3239200521931136e-12,2.878350916683036e-06,0.8562066555023193,0.0,0.0,0.0
1733388398357904,9.814495813065114e-12,2.057266340013102e-12,2.878350916683051e-06,0.8622304201126099,0.0,0.0,0.0
1733388398445374,8.217002426762866e-12,1.7222556274109276e-12,2.8783509166830614e-06,0.8638990521430969,0.0,0.0,0.0
1733388398496487,6.925894890336899e-12,1.451524867166729e-12,2.8783509166830614e-06,0.8564032316207886,0.0,0.0,0.0
1733388398588154,5.584797362741266e-12,1.1703310723854107e-12,2.8783509166830614e-06,0.8542779088020325,0.0,0.0,0.0
1733388398658860,3.885130381831103e-12,8.139780791690086e-13,2.8783509166830614e-06,0.8554415702819824,0.0,0.0,0.0
1733388398721936,2.565932482029778e-12,5.374111746526436e-13,2.8783509166830614e-06,0.8673037886619568,0.0,0.0,0.0
1733388398789785,1.2684482013962107e-12,2.6541078339550297e-13,2.8783509166830614e-06,0.8591819405555725,0.0,0.0,0.0
1733388398859927,-2.1991993375599397e-13,-4.658670479299892e-14,2.8783509166830614e-06,0.8584604263305664,0.0,0.0,0.0
1733388398930331,-1.5200536955492387e-12,-3.191052227875271e-13,2.8783509166830614e-06,0.8620728254318237,0.0,0.0,0.0
1733388399005190,-2.3782981886505612e-12,-4.989857965837015e-13,2.8783509166830614e-06,0.8663716912269592,0.0,0.0,0.0
1733388399072674,-3.2963244789461903e-12,-6.913759975582108e-13,2.8783509166830614e-06,0.8467282652854919,0.0,0.0,0.0
1733388399139980,-3.806560199162855e-12,-7.982896997990609e-13,2.8783509166830614e-06,0.8713143467903137,0.0,0.0,0.0
1733388399189649,-4.275411212735095e-12,-8.965070028856229e-13,2.8783509166830614e-06,0.8587408661842346,0.0,0.0,0.0
1733388399256180,-4.490692244170351e-12,-9.415763240649715e-13,2.8783509166830614e-06,0.861973762512207,0.0,0.0,0.0
1733388399344968,-4.549669759445608e-12,-9.538850156563437e-13,2.8783509166830614e-06,0.8670088052749634,0.0,0.0,0.0
1733388399407731,-4.492342979240417e-12,-9.418159255203398e-13,2.8783509166830614e-06,0.8629138469696045,0.0,0.0,0.0
1733388399484116,-4.2533897543826955e-12,-8.916576363162374e-13,2.8783509166830614e-06,0.8578354120254517,0.0,0.0,0.0
1733388399552909,-3.94691258472207e-12,-8.273621525366583e-13,2.8783509166830614e-06,0.8476144671440125,0.0,0.0,0.0
1733388399610069,-3.5967348693122017e-12,-7.539147980145464e-13,2.8783509166830614e-06,0.8675616979598999,0.0,0.0,0.0
1733388399686306,-3.0493829947547716e-12,-6.391284481058437e-13,2.8783509166830614e-06,0.8542293310165405,0.0,0.0,0.0
1733388399756186,-2.59697795772658e-12,-5.442633597760592e-13,2.8783509166830614e-06,0.8622991442680359,0.0,0.0,0.0
1733388399812272,-2.123948229282744e-12,-4.4508031908429824e-13,2.8783509166830614e-06,0.8679068684577942,0.0,0.0,0.0
1733388399888202,-1.4037858831738612e-12,-2.940904567912527e-13,2.8783509166830614e-06,0.8612352609634399,0.0,0.0,0.0
1733388399958427,-9.336492168533374e-13,-1.9552766592794017e-13,2.8783509166830614e-06,0.8650861382484436,0.0,0.0,0.0
1733388400019807,-4.834842041733284e-13,-1.0115663340913433e-13,2.8783509166830614e-06,0.8714486956596375,0.0,0.0,0.0
1733388400085435,8.38049421674982e-14,1.776067269574395e-14,2.8783509166830614e-06,0.8700761198997498,0.0,0.0,0.0
1733388400138089,4.5450856240744986e-13,9.546380627232262e-14,2.8783509166830614e-06,0.8649377822875977,0.0,0.0,0.0
1733388400224540,8.803564581318891e-13,1.847189405735876e-13,2.8783509166830614e-06,0.8601811528205872,0.0,0.0,0.0
1733388400305347,1.1596872908885075e-12,2.4325915992932096e-13,2.8783509166830614e-06,0.8641185164451599,0.0,0.0,0.0
1733388400392793,1.3635975362096667e-12,2.8598832598086053e-13,2.8783509166830614e-06,0.8703030347824097,0.0,0.0,0.0
1733388400478483,1.5904132959089242e-12,3.3350667523500276e-13,2.8783509166830614e-06,0.8676339983940125,0.0,0.0,0.0
1733388400550789,1.6739821006640167e-12,3.5100591762663784e-13,2.8783509166830614e-06,0.8617441058158875,0.0,0.0,0.0
1733388400609500,1.7162045489680832e-12,3.5983486110951073e-13,2.8783509166830614e-06,0.8772227764129639,0.0,0.0,0.0
1733388400696466,1.6939957673712398e-12,3.5515106466874894e-13,2.8783509166830614e-06,0.8453143835067749,0.0,0.0,0.0
1733388400736465,1.6569136376442214e-12,3.47365016323887e-13,2.8783509166830614e-06,0.8548665642738342,0.0,0.0,0.0
1733388400803113,1.5425166213013167e-12,3.2336113332563854e-13,2.8783509166830614e-06,0.8649958968162537,0.0,0.0,0.0
1733388400889356,1.418045596090508e-12,2.972519623142823e-13,2.8783509166830614e-06,0.8696690797805786,0.0,0.0,0.0
1733388400941525,1.2751914208070115e-12,2.6729147029191934e-13,2.8783509166830614e-06,0.8661829829216003,0.0,0.0,0.0
1733388401012978,1.0427025107449374e-12,2.185382189042105e-13,2.8783509166830614e-06,0.8723728060722351,0.0,0.0,0.0
1733388401077741,8.683782404611407e-13,1.819855532518087e-13,2.8783509166830614e-06,0.8522248864173889,0.0,0.0,0.0
1733388401146445,6.897137885079999e-13,1.4452515295890567e-13,2.8783509166830614e-06,0.8661168813705444,0.0,0.0,0.0
1733388401231517,4.467224681469966e-13,9.358068628386255e-14,2.8783509166830614e-06,0.8526224493980408,0.0,0.0,0.0
1733388401286494,2.7516328220196254e-13,5.761452980261458e-14,2.8783509166830614e-06,0.8574772477149963,0.0,0.0,0.0
1733388401360085,4.612523237226154e-14,9.601275238188809e-15,2.8783509166830614e-06,0.8617674112319946,0.0,0.0,0.0
1733388401419510,-1.0250712713656404e-13,-2.1554472967628124e-14,2.8783509166830614e-06,0.8657264709472656,0.0,0.0,0.0
1733388401496827,-2.3059745066643377e-13,-4.840263879448219e-14,2.8783509166830614e-06,0.8482421040534973,0.0,0.0,0.0
1733388401580971,-3.745935808195225e-13,-7.858219209041366e-14,2.8783509166830614e-06,0.8617979884147644,0.0,0.0,0.0
1733388401658722,-4.612585659292514e-13,-9.67439298748519e-14,2.8783509166830614e-06,0.8688279986381531,0.0,0.0,0.0
1733388401727836,-5.423444116392605e-13,-1.1373383682567193e-13,2.8783509166830614e-06,0.8660054802894592,0.0,0.0,0.0
1733388401799994,-5.87372647498216e-13,-1.2316604210346716e-13,2.8783509166830614e-06,0.8672333359718323,0.0,0.0,0.0
1733388401876631,-6.19716602401429e-13,-1.2993659274439836e-13,2.8783509166830614e-06,0.8799495100975037,0.0,0.0,0.0
1733388401934771,-6.246517101011356e-13,-1.309641174021528e-13,2.8783509166830614e-06,0.8663618564605713,0.0,0.0,0.0
1733388401987930,-6.084564210959069e-13,-1.2755975127617436e-13,2.8783509166830614e-06,0.8775472640991211,0.0,0.0,0.0
1733388402091277,-5.786624640939988e-13,-1.213070551422613e-13,2.8783509166830614e-06,0.8707116842269897,0.0,0.0,0.0
1733388402163632,-5.362884511362616e-13,-1.124177942335093e-13,2.8783509166830614e-06,0.8689972162246704,0.0,0.0,0.0
1733388402247627,-4.83669746737102e-13,-1.0138164504172495e-13,2.8783509166830614e-06,0.8804208040237427,0.0,0.0,0.0
1733388402318691,-4.050823982264535e-13,-8.490125258647393e-14,2.8783509166830614e-06,0.8652343153953552,0.0,0.0,0.0
1733388402375816,-3.4226414640741457e-13,-7.172906536680962e-14,2.8783509166830614e-06,0.8622972965240479,0.0,0.0,0.0
1733388402444240,-2.7485037055312423e-13,-5.759420715595079e-14,2.8783509166830614e-06,0.882844865322113,0.0,0.0,0.0
1733388402516084,-1.893350030027004e-13,-3.966512306362506e-14,2.8783509166830614e-06,0.8747351169586182,0.0,0.0,0.0
1733388402589027,-1.2503910614001303e-13,-2.618570340871973e-14,2.8783509166830614e-06,0.8643972277641296,0.0,0.0,0.0
1733388402663078,-4.002998710996528e-14,-8.364900641058545e-15,2.8783509166830614e-06,0.8733335733413696,0.0,0.0,0.0
1733388402725359,1.732329580030556e-14,3.657533485978231e-15,2.8783509166830614e-06,0.8761669397354126,0.0,0.0,0.0
1733388402786102,8.277300272926145e-14,1.7376210507618243e-14,2.8783509166830614e-06,0.8747215270996094,0.0,0.0,0.0
1733388402851243,1.2467305674795413e-13,2.6158025883107413e-14,2.8783509166830614e-06,0.8715158700942993,0.0,0.0,0.0
1733388402916727,1.6098288155206495e-13,3.376751723681209e-14,2.8783509166830614e-06,0.8660377264022827,0.0,0.0,0.0
1733388403000667,1.9622909580581902e-13,4.115306979516212e-14,2.8783509166830614e-06,0.8753440976142883,0.0,0.0,0.0
1733388403082540,2.2073540071616943e-13,4.6286726375834534e-14,2.8783509166830614e-06,0.8764526844024658,0.0,0.0,0.0
1733388403151276,2.307934458740441e-13,4.839245732258311e-14,2.8783509166830614e-06,0.874323844909668,0.0,0.0,0.0
1733388403223458,2.345874613553313e-13,4.918505237238562e-14,2.8783509166830614e-06,0.8785668611526489,0.0,0.0,0.0
1733388403289890,2.320977126710497e-13,4.8660175666748435e-14,2.8783509166830614e-06,0.8809464573860168,0.0,0.0,0.0
1733388403364657,2.2078518177246208e-13,4.628535311401477e-14,2.8783509166830614e-06,0.8803967833518982,0.0,0.0,0.0
1733388403439093,2.0720701287423528e-13,4.3436636240844405e-14,2.8783509166830614e-06,0.8787162899971008,0.0,0.0,0.0
1733388403513839,1.887856988187063e-13,3.957273913437028e-14,2.8783509166830614e-06,0.8674389123916626,0.0,0.0,0.0
1733388403612904,1.6135523583927865e-13,3.382009887167647e-14,2.8783509166830614e-06,0.8560231328010559,0.0,0.0,0.0
1733388403670064,1.3538059698990476e-13,2.8373385314078926e-14,2.8783509166830614e-06,0.8711287975311279,0.0,0.0,0.0
1733388403758679,1.0803868816459817e-13,2.2640417491827908e-14,2.8783509166830614e-06,0.8777434825897217,0.0,0.0,0.0
1733388403823844,7.540714558523634e-14,1.579882669090997e-14,2.8783509166830614e-06,0.8825230002403259,0.0,0.0,0.0
1733388403892453,5.376600237980154e-14,1.1261770167009218e-14,2.8783509166830614e-06,0.8847621083259583,0.0,0.0,0.0
1733388403967792,3.0625062713196665e-14,6.4105134223928426e-15,2.8783509166830614e-06,0.8769403696060181,0.0,0.0,0.0
1733388404039372,2.000685059733442e-15,4.100656856549938e-16,2.8783509166830614e-06,0.8734240531921387,0.0,0.0,0.0
1733388404095661,-1.7924412274572885e-14,-3.766506642814417e-15,2.8783509166830614e-06,0.882225751876831,0.0,0.0,0.0
1733388404163388,-3.447017828720234e-14,-7.234510728974605e-15,2.8783509166830614e-06,0.8712495565414429,0.0,0.0,0.0
1733388404254625,-5.4057086715316564e-14,-1.1339583965320276e-14,2.8783509166830614e-06,0.8637502193450928,0.0,0.0,0.0
1733388404355337,-6.892806681030094e-14,-1.4455838557084156e-14,2.8783509166830614e-06,0.8848696351051331,0.0,0.0,0.0
1733388404444771,-7.699626584219146e-14,-1.614620802207322e-14,2.8783509166830614e-06,0.8706046342849731,0.0,0.0,0.0
1733388404528355,-8.211256191453858e-14,-1.7217786962546486e-14,2.8783509166830614e-06,0.8683323264122009,0.0,0.0,0.0
1733388404595915,-8.509467660728975e-14,-1.7841892088763405e-14,2.8783509166830614e-06,0.8835636377334595,0.0,0.0,0.0
1733388404689919,-8.560223742787591e-14,-1.7947164845755177e-14,2.8783509166830614e-06,0.8756242394447327,0.0,0.0,0.0
1733388404803341,-8.2873682306097e-14,-1.737390634758186e-14,2.8783509166830614e-06,0.8736437559127808,0.0,0.0,0.0
1733388404876219,-7.893610192653338e-14,-1.6547611087315136e-14,2.8783509166830614e-06,0.8746480941772461,0.0,0.0,0.0
1733388404977302,-7.127277277183295e-14,-1.494007493016325e-14,2.8783509166830614e-06,0.8709814548492432,0.0,0.0,0.0
1733388405063475,-6.416616815057421e-14,-1.3449615423033305e-14,2.8783509166830614e-06,0.8779168128967285,0.0,0.0,0.0
1733388405121943,-5.45181569652272e-14,-1.1426389634396412e-14,2.8783509166830614e-06,0.8774648904800415,0.0,0.0,0.0
1733388405169891,-4.229222101681541e-14,-8.862823299081254e-15,2.8783509166830614e-06,0.8890854716300964,0.0,0.0,0.0
1733388405227674,-3.3279926488052836e-14,-6.973243118821183e-15,2.8783509166830614e-06,0.8743584752082825,0.0,0.0,0.0
1733388405316874,-2.0758250980019678e-14,-4.348032100053901e-15,2.8783509166830614e-06,0.8786738514900208,0.0,0.0,0.0
1733388405387656,-1.2438257544449802e-14,-2.603822887566654e-15,2.8783509166830614e-06,0.8612367510795593,0.0,0.0,0.0
1733388405450730,-4.044371828236132e-15,-8.442119350170018e-16,2.8783509166830614e-06,0.8808978199958801,0.0,0.0,0.0
1733388405564940,6.226208410997234e-15,1.3086712695055512e-15,2.8783509166830614e-06,0.8780324459075928,0.0,0.0,0.0
1733388405626284,1.2631486168152356e-14,2.6512255327116714e-15,2.8783509166830614e-06,0.8783085942268372,0.0,0.0,0.0
1733388405695143,1.8505508033737185e-14,3.8823354493333635e-15,2.8783509166830614e-06,0.8796958327293396,0.0,0.0,0.0
1733388405778074,2.4618576906828147e-14,5.163395382275519e-15,2.8783509166830614e-06,0.8644208908081055,0.0,0.0,0.0
1733388405852836,2.8120497958189132e-14,5.897125589593115e-15,2.8783509166830614e-06,0.8756124377250671,0.0,0.0,0.0
1733388405904706,3.0377599161810394e-14,6.369904689761803e-15,2.8783509166830614e-06,0.8776240944862366,0.0,0.0,0.0
1733388405979387,3.167262425398892e-14,6.6409937478561995e-15,2.8783509166830614e-06,0.876719057559967,0.0,0.0,0.0
1733388406066759,3.2005452296870907e-14,6.710254854737091e-15,2.8783509166830614e-06,0.8812584280967712,0.0,0.0,0.0
1733388406148799,3.131368424937119e-14,6.564867991775404e-15,2.8783509166830614e-06,0.8718485236167908,0.0,0.0,0.0
1733388406221387,2.990892780478985e-14,6.270038213970492e-15,2.8783509166830614e-06,0.8770666718482971,0.0,0.0,0.0
1733388406295491,2.720890097087322e-14,5.703620709436397e-15,2.8783509166830614e-06,0.8885592818260193,0.0,0.0,0.0
1733388406360300,2.4379079135574567e-14,5.110108793563454e-15,2.8783509166830614e-06,0.8795689940452576,0.0,0.0,0.0
1733388406456670,2.1452854455963313e-14,4.496452460150146e-15,2.8783509166830614e-06,0.8700292110443115,0.0,0.0,0.0
1733388406522043,1.7966145881122496e-14,3.765322686937121e-15,2.8783509166830614e-06,0.8832743763923645,0.0,0.0,0.0
1733388406607637,1.3539200550768138e-14,2.8371097986387425e-15,2.8783509166830614e-06,0.8845661282539368,0.0,0.0,0.0
1733388406648738,1.0192034666694323e-14,2.135344603558071e-15,2.8783509166830614e-06,0.8722472786903381,0.0,0.0,0.0
1733388406717813,6.2685956242751955e-15,1.3128050657816012e-15,2.8783509166830614e-06,0.8792790770530701,0.0,0.0,0.0
1733388406780940,3.259127383212984e-15,6.819116782579812e-16,2.8783509166830614e-06,0.8789909482002258,0.0,0.0,0.0
1733388406851166,-7.44876212123446e-16,-1.5742131216290947e-16,2.8783509166830614e-06,0.8838720321655273,0.0,0.0,0.0
1733388406910415,-1.6236757855514427e-15,-3.4162939316229537e-16,2.8783509166830614e-06,0.8836073875427246,0.0,0.0,0.0
1733388406994947,-5.516946429845186e-15,-1.157660757666274e-15,2.8783509166830614e-06,0.884482204914093,0.0,0.0,0.0
1733388407068137,-7.645045826908414e-15,-1.603663029114009e-15,2.8783509166830614e-06,0.8837894797325134,0.0,0.0,0.0
1733388407133783,-9.53650700365113e-15,-2.0000183692192853e-15,2.8783509166830614e-06,0.8876358866691589,0.0,0.0,0.0
1733388407197545,-1.0617519096190551e-14,-2.2264977160423872e-15,2.8783509166830614e-06,0.8794519305229187,0.0,0.0,0.0
1733388407270800,-1.1331961853222176e-14,-2.376126613961513e-15,2.8783509166830614e-06,0.879003643989563,0.0,0.0,0.0
1733388407343190,-1.1743373039833348e-14,-2.462182891244258e-15,2.8783509166830614e-06,0.8814873099327087,0.0,0.0,0.0
1733388407423694,-1.1675397705991884e-14,-2.4477892357614693e-15,2.8783509166830614e-06,0.8762180209159851,0.0,0.0,0.0
1733388407487367,-1.1167489350494182e-14,-2.3411455889634456e-15,2.8783509166830614e-06,0.8855785727500916,0.0,0.0,0.0
1733388407552278,-1.0470978465232e-14,-2.1950103417081415e-15,2.8783509166830614e-06,0.8821972608566284,0.0,0.0,0.0
1733388407613777,-9.624971435613566e-15,-2.0175552817340098e-15,2.8783509166830614e-06,0.8819923996925354,0.0,0.0,0.0
1733388407681067,-8.415781717353256e-15,-1.7639613961274133e-15,2.8783509166830614e-06,0.8788382411003113,0.0,0.0,0.0
1733388407736251,-7.250553849641818e-15,-1.5196144252027497e-15,2.8783509166830614e-06,0.8878440856933594,0.0,0.0,0.0
1733388407820126,-5.603895405750942e-15,-1.174342725038953e-15,2.8783509166830614e-06,0.8853784203529358,0.0,0.0,0.0
1733388407899851,-4.367984102982236e-15,-9.15215241507769e-16,2.8783509166830614e-06,0.893570065498352,0.0,0.0,0.0
1733388407958537,-2.9391521648882366e-15,-6.156564552155856e-16,2.8783509166830614e-06,0.8844106793403625,0.0,0.0,0.0
1733388408060713,-1.3767329147662008e-15,-2.8811141999387706e-16,2.8783509166830614e-06,0.8731111884117126,0.0,0.0,0.0
1733388408142193,-2.1656817171020614e-16,-4.4909769487026585e-17,2.8783509166830614e-06,0.8781033754348755,0.0,0.0,0.0
1733388408192693,8.074670824578139e-16,1.6974326053671611e-16,2.8783509166830614e-06,0.8883398771286011,0.0,0.0,0.0
1733388408285675,1.6892241390278712e-15,3.545612360941727e-16,2.8783509166830614e-06,0.8901908993721008,0.0,0.0,0.0
1733388408336045,2.679170113274624e-15,5.620381724522416e-16,2.8783509166830614e-06,0.8680582046508789,0.0,0.0,0.0
1733388408408177,3.2913792278575173e-15,6.903326433064675e-16,2.8783509166830614e-06,0.8829267621040344,0.0,0.0,0.0
1733388408471728,3.803606177495504e-15,7.976581383306388e-16,2.8783509166830614e-06,0.8825461268424988,0.0,0.0,0.0
1733388408522079,4.126809155428696e-15,8.653598838848454e-16,2.8783509166830614e-06,0.8837563395500183,0.0,0.0,0.0
1733388408585766,4.3490592793712446e-15,9.118819267931658e-16,2.8783509166830614e-06,0.8903217315673828,0.0,0.0,0.0
1733388408639628,4.380285873977843e-15,9.183752690876072e-16,2.8783509166830614e-06,0.8789764046669006,0.0,0.0,0.0
1733388408725982,4.2521881161261776e-15,8.914550930127373e-16,2.8783509166830614e-06,0.8926103711128235,0.0,0.0,0.0
1733388408767228,4.051415851844835e-15,8.493213795283223e-16,2.8783509166830614e-06,0.8825697302818298,0.0,0.0,0.0
1733388408825464,3.774369206297629e-15,7.912019251149674e-16,2.8783509166830614e-06,0.878524899482727,0.0,0.0,0.0
1733388408879440,3.42208873048626e-15,7.173143315997728e-16,2.8783509166830614e-06,0.8818230032920837,0.0,0.0,0.0
1733388408946629,2.8785775054610123e-15,6.033344031894429e-16,2.8783509166830614e-06,0.8916435837745667,0.0,0.0,0.0
1733388409030979,2.4428617670436803e-15,5.119695123748659e-16,2.8783509166830614e-06,0.8790342807769775,0.0,0.0,0.0
1733388409101589,1.8061171926024154e-15,3.784616311999323e-16,2.8783509166830614e-06,0.8985820412635803,0.0,0.0,0.0
1733388409164891,1.3484848844420585e-15,2.825151880207338e-16,2.8783509166830614e-06,0.8936662673950195,0.0,0.0,0.0
1733388409228526,9.008151272872284e-16,1.8866232751463736e-16,2.8783509166830614e-06,0.8867262601852417,0.0,0.0,0.0
1733388409271001,4.450187920655109e-16,9.311070761788943e-17,2.8783509166830614e-06,0.8785766959190369,0.0,0.0,0.0
1733388409338926,-7.856150645548632e-17,-1.6644159705443243e-17,2.8783509166830614e-06,0.877067506313324,0.0,0.0,0.0
1733388409444814,-4.725934200373718e-16,-9.92368685980182e-17,2.8783509166830614e-06,0.8960314989089966,0.0,0.0,0.0
1733388409589023,-7.659561041611828e-16,-1.6072414822645848e-16,2.8783509166830614e-06,0.9022579193115234,0.0,0.0,0.0
1733388409684700,-1.1004513131325362e-15,-2.30826030336297e-16,2.8783509166830614e-06,0.8871353268623352,0.0,0.0,0.0
1733388409746367,-1.295755864468678e-15,-2.71751571277213e-16,2.8783509166830614e-06,0.8877659440040588,0.0,0.0,0.0
1733388409803823,-1.4815908967532214e-15,-3.1068450517430447e-16,2.8783509166830614e-06,0.8906550407409668,0.0,0.0,0.0
1733388409858507,-1.5684940583523325e-15,-3.288827400659658e-16,2.8783509166830614e-06,0.8780876994132996,0.0,0.0,0.0
1733388409910254,-1.6075366799467583e-15,-3.3704838666349916e-16,2.8783509166830614e-06,0.887236475944519,0.0,0.0,0.0
1733388409968416,-1.5949940423099748e-15,-3.343938109588243e-16,2.8783509166830614e-06,0.8971230983734131,0.0,0.0,0.0
1733388410021464,-1.545059154250679e-15,-3.239089532149135e-16,2.8783509166830614e-06,0.8896212577819824,0.0,0.0,0.0
1733388410086017,-1.4591132227114092e-15,-3.058751146000925e-16,2.8783509166830614e-06,0.8787559270858765,0.0,0.0,0.0
1733388410162190,-1.3069999443059875e-15,-2.73967979802494e-16,2.8783509166830614e-06,0.889609158039093,0.0,0.0,0.0
1733388410227405,-1.1689635223119014e-15,-2.450186610713346e-16,2.8783509166830614e-06,0.8875513076782227,0.0,0.0,0.0
1733388410280598,-1.0053796143370342e-15,-2.107150262972617e-16,2.8783509166830614e-06,0.8927837610244751,0.0,0.0,0.0
1733388410343259,-8.25204294524237e-16,-1.7293529822224164e-16,2.8783509166830614e-06,0.8899599313735962,0.0,0.0,0.0
1733388410417815,-5.943293842874414e-16,-1.2452843274668818e-16,2.8783509166830614e-06,0.8810180425643921,0.0,0.0,0.0
1733388410486090,-4.2636294738178057e-16,-8.931366805846466e-17,2.8783509166830614e-06,0.8793916702270508,0.0,0.0,0.0
1733388410561574,-2.476592981339309e-16,-5.1849806318610066e-17,2.8783509166830614e-06,0.8843863606452942,0.0,0.0,0.0
1733388410633776,-5.0443140263520774e-17,-1.0507443762049413e-17,2.8783509166830614e-06,0.8881728649139404,0.0,0.0,0.0
1733388410729218,8.73929904598378e-17,1.8385324488880896e-17,2.8783509166830614e-06,0.8914573788642883,0.0,0.0,0.0
1733388410806138,2.4844593617803066e-16,5.214236566155582e-17,2.8783509166830614e-06,0.8905997276306152,0.0,0.0,0.0
1733388410858415,3.502469735814635e-16,7.347826007021373e-17,2.8783509166830614e-06,0.8913050293922424,0.0,0.0,0.0
1733388410924355,4.347251187433607e-16,9.118187820704288e-17,2.8783509166830614e-06,0.894521176815033,0.0,0.0,0.0
1733388410987377,5.19766667169197e-16,1.0900075030072826e-16,2.8783509166830614e-06,0.8906598091125488,0.0,0.0,0.0
1733388411051167,5.629908809708408e-16,1.180550603617143e-16,2.8783509166830614e-06,0.8858440518379211,0.0,0.0,0.0
1733388411117041,5.897946301897507e-16,1.2366670994928117e-16,2.8783509166830614e-06,0.8879172205924988,0.0,0.0,0.0
1733388411177378,5.9921974169348345e-16,1.2563317765113343e-16,2.8783509166830614e-06,0.8888024091720581,0.0,0.0,0.0
1733388411257264,5.893421594925298e-16,1.2355576250395925e-16,2.8783509166830614e-06,0.886418342590332,0.0,0.0,0.0
1733388411314768,5.627028973415199e-16,1.1796410857171287e-16,2.8783509166830614e-06,0.8943301439285278,0.0,0.0,0.0
1733388411370567,5.121493662509812e-16,1.0735862987520347e-16,2.8783509166830614e-06,0.9012326598167419,0.0,0.0,0.0
1733388411433228,4.63215643983684e-16,9.70953773070827e-17,2.8783509166830614e-06,0.8971836566925049,0.0,0.0,0.0
1733388411519641,4.110904669115421e-16,8.616408156697178e-17,2.8783509166830614e-06,0.8943845629692078,0.0,0.0,0.0
1733388411611685,3.3025379000254915e-16,6.921334880767614e-17,2.8783509166830614e-06,0.8934381604194641,0.0,0.0,0.0
1733388411679054,2.7021507687444906e-16,5.662476509792176e-17,2.8783509166830614e-06,0.8986645340919495,0.0,0.0,0.0
1733388411763018,2.0119251957608847e-16,4.2153360869534164e-17,2.8783509166830614e-06,0.8920773267745972,0.0,0.0,0.0
1733388411831446,1.1928226027511955e-16,2.4980988335172454e-17,2.8783509166830614e-06,0.8879148364067078,0.0,0.0,0.0
1733388411896897,4.039091935705188e-17,8.442651133037288e-18,2.8783509166830614e-06,0.9001050591468811,0.0,0.0,0.0
1733388411965605,4.615472515798261e-18,9.43283709147912e-19,2.8783509166830614e-06,0.9067094326019287,0.0,0.0,0.0
1733388412029638,-6.177932159369759e-17,-1.2973828004035623e-17,2.8783509166830614e-06,0.8963831663131714,0.0,0.0,0.0
1733388412091709,-1.0493184764567695e-16,-2.201839217547352e-17,2.8783509166830614e-06,0.9013554453849792,0.0,0.0,0.0
1733388412146103,-1.414422578061864e-16,-2.9670170027790014e-17,2.8783509166830614e-06,0.8900625705718994,0.0,0.0,0.0
1733388412248481,-1.7982120059923917e-16,-3.77124870549284e-17,2.8783509166830614e-06,0.8909688591957092,0.0,0.0,0.0
1733388412319947,-1.993520246487858e-16,-4.180430940829937e-17,2.8783509166830614e-06,0.8880788087844849,0.0,0.0,0.0
1733388412411339,-2.1543268857234474e-16,-4.5171900758506967e-17,2.8783509166830614e-06,0.8921413421630859,0.0,0.0,0.0
1733388412487198,-2.1952148601966863e-16,-4.602722521436012e-17,2.8783509166830614e-06,0.9000585079193115,0.0,0.0,0.0
1733388412597217,-2.195399395485023e-16,-4.6027609695714376e-17,2.8783509166830614e-06,0.8976110219955444,0.0,0.0,0.0
1733388412697585,-2.1349776240185483e-16,-4.475854860822548e-17,2.8783509166830614e-06,0.8950903415679932,0.0,0.0,0.0
1733388412749530,-1.9862591302549785e-16,-4.1637946951492807e-17,2.8783509166830614e-06,0.8968577980995178,0.0,0.0,0.0
1733388412807785,-1.8206825796345675e-16,-3.816480426614206e-17,2.8783509166830614e-06,0.90248042345047,0.0,0.0,0.0
1733388412864736,-1.5485846908078047e-16,-3.2458330232438636e-17,2.8783509166830614e-06,0.9030671715736389,0.0,0.0,0.0
1733388412920442,-1.3201052393917854e-16,-2.766720749342682e-17,2.8783509166830614e-06,0.9002108573913574,0.0,0.0,0.0
1733388412974259,-1.02465608592884e-16,-2.1472283127074266e-17,2.8783509166830614e-06,0.897148609161377,0.0,0.0,0.0
1733388413036502,-7.850344456168401e-17,-1.644828965895354e-17,2.8783509166830614e-06,0.8923983573913574,0.0,0.0,0.0
1733388413095099,-5.556457248336348e-17,-1.1639103733699108e-17,2.8783509166830614e-06,0.892949640750885,0.0,0.0,0.0
1733388413161820,-2.6248943762774102e-17,-5.493378445410579e-18,2.8783509166830614e-06,0.8932399749755859,0.0,0.0,0.0
1733388413232219,-6.4388301719216085e-18,-1.3406315666644248e-18,2.8783509166830614e-06,0.887095034122467,0.0,0.0,0.0
1733388413290133,1.8229976858858834e-17,3.830310220923488e-18,2.8783509166830614e-06,0.8957769274711609,0.0,0.0,0.0
1733388413357719,3.535530938548294e-17,7.41976262505984e-18,2.8783509166830614e-06,0.9034252762794495,0.0,0.0,0.0
1733388413415768,4.907543655962734e-17,1.029526365314896e-17,2.8783509166830614e-06,0.8945972919464111,0.0,0.0,0.0
1733388413482017,6.427177383397412e-17,1.3479771734537478e-17,2.8783509166830614e-06,0.898858904838562,0.0,0.0,0.0
1733388413535445,7.243101082693404e-17,1.5189278330629223e-17,2.8783509166830614e-06,0.908648669719696,0.0,0.0,0.0
1733388413591839,7.774665716618426e-17,1.630269387937668e-17,2.8783509166830614e-06,0.894076943397522,0.0,0.0,0.0
1733388413666784,8.155467948615404e-17,1.7099691465545744e-17,2.8783509166830614e-06,0.9025118350982666,0.0,0.0,0.0
1733388413719238,8.186261284702595e-17,1.71632289236675e-17,2.8783509166830614e-06,0.8943178057670593,0.0,0.0,0.0
1733388413838799,7.539920614793012e-17,1.5806266751581724e-17,2.8783509166830614e-06,0.8991003036499023,0.0,0.0,0.0
1733388413912185,6.969893505448218e-17,1.461048757055344e-17,2.8783509166830614e-06,0.8887626528739929,0.0,0.0,0.0
1733388413970013,6.293753119366125e-17,1.319237827843989e-17,2.8783509166830614e-06,0.8890485763549805,0.0,0.0,0.0
1733388414029719,5.4455332621008666e-17,1.141358188782045e-17,2.8783509166830614e-06,0.8939985632896423,0.0,0.0,0.0
1733388414081727,4.296847203379583e-17,9.004933370008625e-18,2.8783509166830614e-06,0.9056609869003296,0.0,0.0,0.0
1733388414144397,3.3847873570899773e-17,7.092613151976964e-18,2.8783509166830614e-06,0.9011412262916565,0.0,0.0,0.0
1733388414213571,2.5274585041814037e-17,5.295151451391319e-18,2.8783509166830614e-06,0.8957000970840454,0.0,0.0,0.0
1733388414272887,1.4162365404052702e-17,2.9655213204183988e-18,2.8783509166830614e-06,0.8936859369277954,0.0,0.0,0.0
1733388414327672,6.041084423515406e-18,1.2630305067180769e-18,2.8783509166830614e-06,0.8998703956604004,0.0,0.0,0.0
1733388414385802,-1.241497708738574e-18,-2.6356047437115923e-19,2.8783509166830614e-06,0.8929307460784912,0.0,0.0,0.0
1733388414452145,-9.865586649236161e-18,-2.0712415321657275e-18,2.8783509166830614e-06,0.9070040583610535,0.0,0.0,0.0
1733388414537487,-1.5744819244804747e-17,-3.3034783463749458e-18,2.8783509166830614e-06,0.9100659489631653,0.0,0.0,0.0
1733388414598248,-2.1577751553588293e-17,-4.525886260290062e-18,2.8783509166830614e-06,0.8961015343666077,0.0,0.0,0.0
1733388414661595,-2.523203674968834e-17,-5.2916021017417716e-18,2.8783509166830614e-06,0.9052892923355103,0.0,0.0,0.0
1733388414746482,-2.7661460277152938e-17,-5.800557614282791e-18,2.8783509166830614e-06,0.9034425020217896,0.0,0.0,0.0
1733388414807849,-2.970880722515925e-17,-6.229263780667316e-18,2.8783509166830614e-06,0.8943517208099365,0.0,0.0,0.0
1733388414869598,-3.022838910969724e-17,-6.33784190915961e-18,2.8783509166830614e-06,0.9034929871559143,0.0,0.0,0.0
1733388414930173,-2.977186196683073e-17,-6.241669356810951e-18,2.8783509166830614e-06,0.8849613070487976,0.0,0.0,0.0
1733388414993200,-2.8651630234401183e-17,-6.0065095734342986e-18,2.8783509166830614e-06,0.9051215052604675,0.0,0.0,0.0
1733388415051917,-2.689671057035058e-17,-5.63831342770324e-18,2.8783509166830614e-06,0.90810227394104,0.0,0.0,0.0
1733388415103067,-2.3813965100187113e-17,-4.99171116346702e-18,2.8783509166830614e-06,0.9023899435997009,0.0,0.0,0.0
1733388415174736,-2.0945391999954212e-17,-4.3901287653884126e-18,2.8783509166830614e-06,0.9068440198898315,0.0,0.0,0.0
1733388415239257,-1.7897520510699742e-17,-3.751006250895289e-18,2.8783509166830614e-06,0.9090702533721924,0.0,0.0,0.0
1733388415304936,-1.3738172453229853e-17,-2.8788859010438606e-18,2.8783509166830614e-06,0.8937675952911377,0.0,0.0,0.0
1733388415367869,-1.0351554298392787e-17,-2.1688395854973916e-18,2.8783509166830614e-06,0.9120274186134338,0.0,0.0,0.0
1733388415411243,-7.014812734555851e-18,-1.4692899031196425e-18,2.8783509166830614e-06,0.8998793363571167,0.0,0.0,0.0
1733388415477110,-3.908989091574056e-18,-8.181867907553549e-19,2.8783509166830614e-06,0.8969318866729736,0.0,0.0,0.0
1733388415537572,-1.918806795912806e-19,-3.8981123318090587e-20,2.8783509166830614e-06,0.9010595679283142,0.0,0.0,0.0
1733388415598567,2.3968591997046994e-18,5.036530526838012e-19,2.8783509166830614e-06,0.9112334251403809,0.0,0.0,0.0
1733388415667155,5.289268191121235e-18,1.1098953776560433e-18,2.8783509166830614e-06,0.8998345732688904,0.0,0.0,0.0
1733388415838305,9.443293960327311e-18,1.9804163510413473e-18,2.8783509166830614e-06,0.9055981636047363,0.0,0.0,0.0
1733388415878651,1.0108802198502208e-17,2.1198398716420287e-18,2.8783509166830614e-06,0.8984330296516418,0.0,0.0,0.0
1733388415955178,1.0765518030182004e-17,2.257382587681102e-18,2.8783509166830614e-06,0.9134619832038879,0.0,0.0,0.0
1733388416026741,1.1158207933884015e-17,2.3395577183243797e-18,2.8783509166830614e-06,0.9025275111198425,0.0,0.0,0.0
1733388416097034,1.1205380863123864e-17,2.34931201754341e-18,2.8783509166830614e-06,0.9078347086906433,0.0,0.0,0.0
