timestamp,roll,pitch,yaw,altitude,roll_setpoint,pitch_setpoint,yaw_setpoint
1733392463116101,4.230914513353366e-08,-4.451800955128714e-09,1.5498798078085869e-06,0.8350431323051453,0.0,0.0,0.0
1733392463131230,1.6408903814736956e-09,-1.728246937131875e-10,1.5498798078172e-06,0.845145046710968,0.0,0.0,0.0
1733392463148649,-1.1062339443611079e-08,1.163767291715334e-09,1.5498798078193224e-06,0.8312482237815857,0.0,0.0,0.0
1733392463157370,-2.4503209520569844e-08,2.577971989337036e-09,1.5498798078212883e-06,0.8487210273742676,0.0,0.0,0.0
1733392463182758,-3.50684577195616e-08,3.6896135947715394e-09,1.5498798078226391e-06,0.8423373699188232,0.0,0.0,0.0
1733392463231643,-1.0443404048342401e-07,1.0988053208084588e-08,1.5498798078279922e-06,0.8214612603187561,0.0,0.0,0.0
1733392463301914,-1.4830412499675735e-07,1.560396410382138e-08,1.5498798078315588e-06,0.8326698541641235,0.0,0.0,0.0
1733392463348054,-1.5553252788422452e-07,1.6364532733575287e-08,1.5498798078340936e-06,0.8375938534736633,0.0,0.0,0.0
1733392463417462,-1.5821640250679476e-07,1.6646948747087963e-08,1.5498798078389795e-06,0.839899480342865,0.0,0.0,0.0
1733392463454796,-1.5533165933172935e-07,1.6343446984051408e-08,1.549879807843894e-06,0.8296301960945129,0.0,0.0,0.0
1733392463534247,-1.4575754808153007e-07,1.533611788482364e-08,1.5498798078515676e-06,0.8354365825653076,0.0,0.0,0.0
1733392463573020,-1.39040838294504e-07,1.4629420442434921e-08,1.5498798078556304e-06,0.8356156945228577,0.0,0.0,0.0
1733392463632094,-1.250963952723049e-07,1.3162252101761891e-08,1.5498798078627275e-06,0.831930935382843,0.0,0.0,0.0
1733392463692736,-1.0604114015551392e-07,1.1157341141899687e-08,1.549879807870733e-06,0.8325801491737366,0.0,0.0,0.0
1733392463744735,-8.98463952609141e-08,9.453396684100903e-09,1.5498798078764886e-06,0.8375834226608276,0.0,0.0,0.0
1733392463802356,-6.53900870412475e-08,6.880199697554138e-09,1.5498798078837638e-06,0.8425545692443848,0.0,0.0,0.0
1733392463862595,-4.8682195924518275e-08,5.122258070102393e-09,1.5498798078878914e-06,0.8291572332382202,0.0,0.0,0.0
1733392463925618,-2.5614589650518974e-08,2.6951677383808446e-09,1.5498798078925994e-06,0.8333098888397217,0.0,0.0,0.0
1733392463979756,-8.599460576135607e-09,9.048947126708034e-10,1.5498798078954075e-06,0.8370534181594849,0.0,0.0,0.0
1733392464040677,5.724581167655665e-09,-6.022332421593089e-10,1.5498798078973836e-06,0.8325760364532471,0.0,0.0,0.0
1733392464094343,2.3346149988463045e-08,-2.456318789166701e-09,1.5498798078994085e-06,0.8370298743247986,0.0,0.0,0.0
1733392464146246,3.469685491433967e-08,-3.6506060913487294e-09,1.5498798079005484e-06,0.8349071741104126,0.0,0.0,0.0
1733392464208713,4.5167522199114613e-08,-4.7523007055243605e-09,1.5498798079015824e-06,0.8454644680023193,0.0,0.0,0.0
1733392464258690,5.470158246115789e-08,-5.75545139468256e-09,1.5498798079026897e-06,0.8283588886260986,0.0,0.0,0.0
1733392464320471,6.006986818229916e-08,-6.320292355239083e-09,1.5498798079035918e-06,0.8310728073120117,0.0,0.0,0.0
1733392464380948,6.335589022426957e-08,-6.666044484127984e-09,1.5498798079045131e-06,0.8342456817626953,0.0,0.0,0.0
1733392464442177,6.528741646680815e-08,-6.869284767173809e-09,1.5498798079059901e-06,0.8364811539649963,0.0,0.0,0.0
1733392464500043,6.475584798991393e-08,-6.813363951753709e-09,1.5498798079072903e-06,0.8335903882980347,0.0,0.0,0.0
1733392464558460,6.280692384492332e-08,-6.608312942038213e-09,1.5498798079086087e-06,0.8426563739776611,0.0,0.0,0.0
1733392464619376,5.818616819509097e-08,-6.122143160447092e-09,1.5498798079105095e-06,0.8352355360984802,0.0,0.0,0.0
1733392464673271,5.378495790467251e-08,-5.659069468677808e-09,1.5498798079118766e-06,0.8500312566757202,0.0,0.0,0.0
1733392464730499,4.653106338454419e-08,-4.895847470633373e-09,1.5498798079137227e-06,0.8396647572517395,0.0,0.0,0.0
1733392464792170,4.043882425467024e-08,-4.2548479387097384e-09,1.5498798079150329e-06,0.8322924971580505,0.0,0.0,0.0
1733392464845968,3.356009673838505e-08,-3.531096179094553e-09,1.5498798079163258e-06,0.8378231525421143,0.0,0.0,0.0
1733392464921766,2.4953262474213684e-08,-2.625518564083442e-09,1.549879807917725e-06,0.8365417718887329,0.0,0.0,0.0
1733392464986422,1.8162257023562978e-08,-1.9109943794632436e-09,1.5498798079186886e-06,0.8491196036338806,0.0,0.0,0.0
1733392465053889,9.949170013595001e-09,-1.046842954860491e-09,1.5498798079197152e-06,0.8348020911216736,0.0,0.0,0.0
1733392465093843,4.0425884736030095e-09,-4.253729223904976e-10,1.5498798079203757e-06,0.8388556838035583,0.0,0.0,0.0
1733392465157464,-1.3918988993481806e-09,1.4642566906927902e-10,1.5498798079209394e-06,0.8285574316978455,0.0,0.0,0.0
1733392465225817,-7.763700934714229e-09,8.168463874993442e-10,1.5498798079215705e-06,0.8456953763961792,0.0,0.0,0.0
1733392465281284,-1.217897360181798e-08,1.2814081984404976e-09,1.5498798079220147e-06,0.8503824472427368,0.0,0.0,0.0
1733392465341487,-1.6347575627297065e-08,1.7200171423864722e-09,1.5498798079224827e-06,0.8389546275138855,0.0,0.0,0.0
1733392465394663,-1.890057529642716e-08,1.98863778510941e-09,1.5498798079228412e-06,0.8398492336273193,0.0,0.0,0.0
1733392465454677,-2.0680100979534995e-08,2.1758763609324282e-09,1.5498798079231904e-06,0.8535234332084656,0.0,0.0,0.0
1733392465520591,-2.184627625671787e-08,2.298581103389407e-09,1.5498798079236148e-06,0.8506116271018982,0.0,0.0,0.0
1733392465575809,-2.203617185370232e-08,2.3185643696666302e-09,1.5498798079239663e-06,0.8287163972854614,0.0,0.0,0.0
1733392465634571,-2.1645148535604724e-08,2.2774250660356954e-09,1.5498798079242981e-06,0.8255661129951477,0.0,0.0,0.0
1733392465690220,-2.0373255167199293e-08,2.1436043523080544e-09,1.5498798079247405e-06,0.845183253288269,0.0,0.0,0.0
1733392465752385,-1.899583236335568e-08,1.99867899390998e-09,1.549879807925056e-06,0.8449956774711609,0.0,0.0,0.0
1733392465807992,-1.718156174241211e-08,1.8077899126663162e-09,1.549879807925384e-06,0.8471784591674805,0.0,0.0,0.0
1733392465867105,-1.4516082329442282e-08,1.527339717872219e-09,1.5498798079257758e-06,0.847487211227417,0.0,0.0,0.0
1733392465923455,-1.2266661884956658e-08,1.2906649181468739e-09,1.5498798079260568e-06,0.8411948680877686,0.0,0.0,0.0
1733392465967793,-8.96773825131749e-09,9.435650678764758e-10,1.5498798079264149e-06,0.8428011536598206,0.0,0.0,0.0
1733392466027726,-6.590696824245024e-09,6.934616746963851e-10,1.549879807926644e-06,0.8288212418556213,0.0,0.0,0.0
1733392466072655,-4.185580590858174e-09,4.4040405344998174e-10,1.5498798079268574e-06,0.8460649847984314,0.0,0.0,0.0
1733392466130597,-2.0315667507101607e-09,2.1376625684579803e-10,1.5498798079270372e-06,0.8403464555740356,0.0,0.0,0.0
1733392466191803,1.226342800789334e-10,-1.2891499854168535e-11,1.5498798079272092e-06,0.8410628437995911,0.0,0.0,0.0
1733392466249060,2.7281200893011284e-09,-2.87032337360698e-10,1.5498798079274146e-06,0.8422882556915283,0.0,0.0,0.0
1733392466331535,4.766409013719183e-09,-5.014949762340029e-10,1.5498798079275819e-06,0.8390504717826843,0.0,0.0,0.0
1733392466386240,6.434949402223729e-09,-6.77054240816938e-10,1.5498798079277362e-06,0.8522332906723022,0.0,0.0,0.0
1733392466432581,7.394047081160454e-09,-7.779682216056006e-10,1.5498798079278449e-06,0.8289012312889099,0.0,0.0,0.0
1733392466490009,8.158986858135249e-09,-8.584537668475786e-10,1.5498798079279577e-06,0.8403333425521851,0.0,0.0,0.0
1733392466553948,8.586151932834015e-09,-9.033997172946419e-10,1.5498798079280537e-06,0.8436797261238098,0.0,0.0,0.0
1733392466611687,8.820706335904751e-09,-9.280803113388976e-10,1.5498798079281852e-06,0.8399212956428528,0.0,0.0,0.0
1733392466671995,8.733423105140475e-09,-9.188978448179296e-10,1.549879807928282e-06,0.8520334362983704,0.0,0.0,0.0
1733392466728221,8.467854782944797e-09,-8.909567129016156e-10,1.5498798079283696e-06,0.8449138402938843,0.0,0.0,0.0
1733392466776823,7.84924174673065e-09,-8.258697235217619e-10,1.5498798079284871e-06,0.8545516729354858,0.0,0.0,0.0
1733392466837476,7.225847128674709e-09,-7.602791935000524e-10,1.5498798079285706e-06,0.8388088941574097,0.0,0.0,0.0
1733392466918551,6.205265008643921e-09,-6.528981264909175e-10,1.5498798079286794e-06,0.8429598212242126,0.0,0.0,0.0
1733392466968958,5.370331376646037e-09,-5.650499335705543e-10,1.5498798079287535e-06,0.8456351161003113,0.0,0.0,0.0
1733392467024154,4.430024601319251e-09,-4.661146542850866e-10,1.5498798079288287e-06,0.8438540101051331,0.0,0.0,0.0
1733392467107830,3.226471281018879e-09,-3.3948142962963796e-10,1.549879807928913e-06,0.8510356545448303,0.0,0.0,0.0
1733392467176214,2.303423561061227e-09,-2.4236178061894575e-10,1.5498798079289723e-06,0.8536397218704224,0.0,0.0,0.0
1733392467236982,1.4408754666496577e-09,-1.5160757270601137e-10,1.5498798079290265e-06,0.8463625311851501,0.0,0.0,0.0
1733392467304646,3.93077175210464e-10,-4.13618629217788e-11,1.5498798079290879e-06,0.8396257162094116,0.0,0.0,0.0
1733392467375246,-3.3847094000322065e-10,3.5609203027845755e-11,1.5498798079291328e-06,0.8557009100914001,0.0,0.0,0.0
1733392467432606,-1.2120185552280659e-09,1.2752112967364464e-10,1.549879807929186e-06,0.8471412062644958,0.0,0.0,0.0
1733392467493553,-1.7321803024420322e-09,1.8225101251748784e-10,1.5498798079292226e-06,0.8461019396781921,0.0,0.0,0.0
1733392467562610,-2.3082923493185934e-09,2.4286796851959027e-10,1.549879807929266e-06,0.8419473767280579,0.0,0.0,0.0
1733392467642538,-2.630753478932108e-09,2.7679658478334393e-10,1.5498798079292986e-06,0.8494371771812439,0.0,0.0,0.0
1733392467704682,-2.872308261631294e-09,3.022125645804717e-10,1.5498798079293301e-06,0.8378541469573975,0.0,0.0,0.0
1733392467777573,-3.0317084498211036e-09,3.1898464255346453e-10,1.549879807929367e-06,0.8518864512443542,0.0,0.0,0.0
1733392467839630,-3.054333000907485e-09,3.213655228510226e-10,1.5498798079293956e-06,0.8498468399047852,0.0,0.0,0.0
1733392467885072,-2.9611162746188636e-09,3.115581223823023e-10,1.5498798079294299e-06,0.8500939011573792,0.0,0.0,0.0
1733392467951113,-2.822418448139176e-09,2.969651641679626e-10,1.5498798079294523e-06,0.8430021405220032,0.0,0.0,0.0
1733392468015143,-2.6176279857006387e-09,2.75418159981544e-10,1.549879807929477e-06,0.846534013748169,0.0,0.0,0.0
1733392468077809,-2.2841822120072576e-09,2.403345309242493e-10,1.5498798079295076e-06,0.8502724766731262,0.0,0.0,0.0
1733392468148268,-1.9857429894159812e-09,2.0893403522822875e-10,1.5498798079295262e-06,0.8470511436462402,0.0,0.0,0.0
1733392468214100,-1.6640230473363181e-09,1.7508397732074142e-10,1.549879807929545e-06,0.852822482585907,0.0,0.0,0.0
1733392468296556,-1.2311553237676383e-09,1.2953932431847327e-10,1.549879807929569e-06,0.8457080125808716,0.0,0.0,0.0
1733392468440960,-3.7971146783253157e-10,3.995350566046724e-11,1.5498798079296116e-06,0.8526736497879028,0.0,0.0,0.0
1733392468497350,-8.699118976390429e-11,9.154479445612931e-12,1.5498798079296232e-06,0.8532019257545471,0.0,0.0,0.0
1733392468546104,1.9092911016554427e-10,-2.0087379773417056e-11,1.5498798079296349e-06,0.8500992059707642,0.0,0.0,0.0
1733392468622035,4.68973890800796e-10,-4.934237998246087e-11,1.549879807929648e-06,0.8505610823631287,0.0,0.0,0.0
1733392468690059,6.735479654529007e-10,-7.086706042670266e-11,1.5498798079296592e-06,0.8476223945617676,0.0,0.0,0.0
1733392468751810,9.083853826974071e-10,-9.557602358684373e-11,1.549879807929675e-06,0.8466107845306396,0.0,0.0,0.0
1733392468819365,1.026781082648124e-09,-1.0803334889284628e-10,1.5498798079296859e-06,0.858994722366333,0.0,0.0,0.0
1733392468892940,1.1179093630515772e-09,-1.1762170936421758e-10,1.5498798079296975e-06,0.8508249521255493,0.0,0.0,0.0
1733392468964686,1.1840899214349818e-09,-1.2458521448863877e-10,1.5498798079297062e-06,0.8503047227859497,0.0,0.0,0.0
1733392469021920,1.1957504585508698e-09,-1.258122531994884e-10,1.549879807929712e-06,0.8374359607696533,0.0,0.0,0.0
1733392469084218,1.1664048859716878e-09,-1.2272482082352446e-10,1.5498798079297198e-06,0.8496900796890259,0.0,0.0,0.0
1733392469147187,1.1177675865341721e-09,-1.176075098208702e-10,1.5498798079297253e-06,0.8422629833221436,0.0,0.0,0.0
1733392469227333,1.0441220629390006e-09,-1.0985891808638043e-10,1.5498798079297314e-06,0.8442158102989197,0.0,0.0,0.0
1733392469293979,9.221806300271675e-10,-9.702881637405071e-11,1.5498798079297392e-06,0.8575044274330139,0.0,0.0,0.0
1733392469359628,8.118428210964893e-10,-8.54195550513075e-11,1.5498798079297452e-06,0.8591237664222717,0.0,0.0,0.0
1733392469419690,6.9206292481968e-10,-7.281681302404515e-11,1.5498798079297513e-06,0.8548370599746704,0.0,0.0,0.0
1733392469516248,5.214873839185769e-10,-5.486953111124304e-11,1.5498798079297596e-06,0.8511069416999817,0.0,0.0,0.0
1733392469578248,3.900963745768867e-10,-4.104506814176699e-11,1.5498798079297655e-06,0.8586079478263855,0.0,0.0,0.0
1733392469667902,2.7326366258001956e-10,-2.875235928976795e-11,1.5498798079297712e-06,0.8488707542419434,0.0,0.0,0.0
1733392469736620,1.1637293004268348e-10,-1.2244871030685688e-11,1.549879807929779e-06,0.8538441061973572,0.0,0.0,0.0
1733392469787330,1.058469003202881e-11,-1.114191221087494e-12,1.5498798079297848e-06,0.8503761887550354,0.0,0.0,0.0
1733392469855497,-8.559158856860281e-11,9.005163098839809e-12,1.5498798079297903e-06,0.8377372622489929,0.0,0.0,0.0
1733392469936675,-1.990745884444054e-10,2.094549405289162e-11,1.5498798079297981e-06,0.8500787615776062,0.0,0.0,0.0
1733392469997670,-2.6775600440806377e-10,2.817195572667356e-11,1.5498798079298038e-06,0.8659732937812805,0.0,0.0,0.0
1733392470058060,-3.2699607694240655e-10,3.440504154584468e-11,1.5498798079298047e-06,0.8378498554229736,0.0,0.0,0.0
1733392470165711,-3.804955461988389e-10,4.00341405146545e-11,1.5498798079298047e-06,0.8575427532196045,0.0,0.0,0.0
1733392470230620,-4.065800145445159e-10,4.277871525244462e-11,1.5498798079298047e-06,0.8584471940994263,0.0,0.0,0.0
1733392470329540,-4.214569213968882e-10,4.434408672720429e-11,1.5498798079298047e-06,0.8627279996871948,0.0,0.0,0.0
1733392470394698,-4.1956701721687694e-10,4.414529435782354e-11,1.5498798079298047e-06,0.852771520614624,0.0,0.0,0.0
1733392470461188,-4.077524416763702e-10,4.290225820998795e-11,1.5498798079298047e-06,0.8573691248893738,0.0,0.0,0.0
1733392470532611,-4.024711718210196e-10,4.234659643667228e-11,1.5498798079298047e-06,0.8456729650497437,0.0,0.0,0.0
1733392470586495,-3.4767281608026575e-10,3.65809974033035e-11,1.5498798079298047e-06,0.8560488820075989,0.0,0.0,0.0
1733392470641837,-3.219116667332898e-10,3.3870526887835087e-11,1.5498798079298047e-06,0.8486886620521545,0.0,0.0,0.0
1733392470705557,-2.6072572856003473e-10,2.7432804045723587e-11,1.5498798079298047e-06,0.856862485408783,0.0,0.0,0.0
1733392470803013,-2.1582461885468597e-10,2.2708490469791522e-11,1.5498798079298047e-06,0.8545972108840942,0.0,0.0,0.0
1733392470846908,-1.6509082652032356e-10,1.737047738491002e-11,1.5498798079298047e-06,0.8484188914299011,0.0,0.0,0.0
1733392470925667,-1.0561577849995472e-10,1.1112733709932066e-11,1.5498798079298047e-06,0.8574842810630798,0.0,0.0,0.0
1733392470975215,-5.696453245430653e-11,5.993823004030434e-12,1.5498798079298047e-06,0.8706845641136169,0.0,0.0,0.0
1733392471035501,-1.7879255191906862e-11,1.8814044877388805e-12,1.5498798079298047e-06,0.8528869152069092,0.0,0.0,0.0
1733392471096062,1.9468720028127927e-11,-2.0482257182666763e-12,1.5498798079298047e-06,0.8535882234573364,0.0,0.0,0.0
1733392471162574,6.638253191104488e-11,-6.984349563257396e-12,1.5498798079298047e-06,0.8473361134529114,0.0,0.0,0.0
1733392471245586,9.474586141070264e-11,-9.968655943928473e-12,1.5498798079298047e-06,0.860945463180542,0.0,0.0,0.0
1733392471321669,1.2469121669799148e-10,-1.3119426628404764e-11,1.5498798079298047e-06,0.8480249643325806,0.0,0.0,0.0
1733392471385848,1.4193010314373187e-10,-1.4933263724174066e-11,1.5498798079298047e-06,0.8548863530158997,0.0,0.0,0.0
1733392471444851,1.5324822128427547e-10,-1.6124137908598044e-11,1.5498798079298047e-06,0.8632031679153442,0.0,0.0,0.0
1733392471507661,1.6122405259544832e-10,-1.6963355233245032e-11,1.5498798079298047e-06,0.8588179349899292,0.0,0.0,0.0
1733392471588774,1.625006341081175e-10,-1.709769409414615e-11,1.5498798079298047e-06,0.8601652383804321,0.0,0.0,0.0
1733392471660430,1.5977774029879713e-10,-1.6811222032518595e-11,1.5498798079298047e-06,0.8541865348815918,0.0,0.0,0.0
1733392471719354,1.5092273391086668e-10,-1.5879554762021472e-11,1.5498798079298047e-06,0.8504047393798828,0.0,0.0,0.0
1733392471791248,1.4092507851188463e-10,-1.4827653702093686e-11,1.5498798079298047e-06,0.8489187359809875,0.0,0.0,0.0
1733392472106620,5.950660198390398e-11,-6.261143536960579e-12,1.5498798079298047e-06,0.864319920539856,0.0,0.0,0.0
1733392472112180,5.335165646451059e-11,-5.613543276462248e-12,1.5498798079298047e-06,0.8654007911682129,0.0,0.0,0.0
1733392472138117,4.7792773187300763e-11,-5.028658208626571e-12,1.5498798079298047e-06,0.8488519787788391,0.0,0.0,0.0
1733392472219759,3.192247402254003e-11,-3.3588432322890995e-12,1.5498798079298047e-06,0.860466718673706,0.0,0.0,0.0
1733392472282460,1.5578109947598138e-11,-1.639148651101514e-12,1.5498798079298047e-06,0.854924738407135,0.0,0.0,0.0
1733392472359680,-3.490314806500737e-12,3.6716169361733504e-13,1.5498798079298047e-06,0.8609105348587036,0.0,0.0,0.0
1733392472420601,-1.0576293259196799e-09,6.162250714661356e-10,1.5498798079259517e-06,0.8468015789985657,0.0,0.0,0.0
1733392472458882,-7.237003383779813e-09,4.2624047410429446e-09,1.5498798079028589e-06,0.859214723110199,0.0,0.0,0.0
1733392472518750,-1.5503815191808756e-08,9.146523246395207e-09,1.5498798078713014e-06,0.86265629529953,0.0,0.0,0.0
1733392472578224,-2.7753388753246073e-08,1.638700001700362e-08,1.5498798078232183e-06,0.8560356497764587,0.0,0.0,0.0
1733392472761439,-9.567474307306413e-08,5.659440682918157e-08,1.5498798075279873e-06,0.8726404309272766,0.0,0.0,0.0
1733392472774784,-1.040791044525436e-07,6.160089874081947e-08,1.5498798074878631e-06,0.862221360206604,0.0,0.0,0.0
1733392472811933,-1.1734215762401511e-07,6.952438743269573e-08,1.5498798074228404e-06,0.8630150556564331,0.0,0.0,0.0
1733392472889304,-1.3817437579174532e-07,8.202653163671239e-08,1.549879807316468e-06,0.8721835017204285,0.0,0.0,0.0
1733392472952651,-1.5956021212077018e-07,9.493431572149933e-08,1.549879807201818e-06,0.8575161099433899,0.0,0.0,0.0
1733392473035153,-1.9375196511078887e-07,1.1572955290192102e-07,1.549879807006866e-06,0.8614478707313538,0.0,0.0,0.0
1733392473090815,-2.1476390248938728e-07,1.28607862920857e-07,1.5498798068798398e-06,0.8593700528144836,0.0,0.0,0.0
1733392473152908,-2.4233410128807133e-07,1.4562314123694242e-07,1.5498798067046816e-06,0.8460277318954468,0.0,0.0,0.0
1733392473220747,-2.656726267927087e-07,1.6013287281900884e-07,1.5498798065487723e-06,0.8584206104278564,0.0,0.0,0.0
1733392473300870,-2.8553759173414103e-07,1.7255892299083557e-07,1.5498798064104982e-06,0.873518168926239,0.0,0.0,0.0
1733392473359242,-3.06585870816366e-07,1.8580241650709855e-07,1.5498798062583296e-06,0.856634259223938,0.0,0.0,0.0
1733392473423027,-3.326915177824174e-07,2.023408737244967e-07,1.5498798060613923e-06,0.8621735572814941,0.0,0.0,0.0
1733392473483413,-3.5212149121454875e-07,2.14733115830721e-07,1.5498798059088302e-06,0.8636048436164856,0.0,0.0,0.0
1733392473546938,-3.7910851703846623e-07,2.320655496176083e-07,1.5498798056883181e-06,0.8522468209266663,0.0,0.0,0.0
1733392473610450,-3.995017500831556e-07,2.452581321644938e-07,1.5498798055149385e-06,0.8554679155349731,0.0,0.0,0.0
1733392473673273,-4.184882027607055e-07,2.5761590330186885e-07,1.5498798053482175e-06,0.8636311888694763,0.0,0.0,0.0
1733392473731775,-4.373467167590492e-07,2.6996373089053724e-07,1.5498798051774884e-06,0.847333550453186,0.0,0.0,0.0
1733392473786568,-4.6291311394835823e-07,2.868230143337813e-07,1.5498798049377394e-06,0.8532143831253052,0.0,0.0,0.0
1733392473853112,-4.827013391944903e-07,2.9996857494367207e-07,1.549879804745517e-06,0.8714038133621216,0.0,0.0,0.0
1733392473910470,-5.017327341553435e-07,3.1269259012729465e-07,1.5498798045550793e-06,0.8657054901123047,0.0,0.0,0.0
1733392473971341,-5.260931297671723e-07,3.290956327635804e-07,1.5498798043032676e-06,0.8635801076889038,0.0,0.0,0.0
1733392474015501,-5.45423078774594e-07,3.422059608135273e-07,1.5498798040969287e-06,0.8617589473724365,0.0,0.0,0.0
1733392474070378,-5.658069062661164e-07,3.5612389356946954e-07,1.549879803872979e-06,0.8685877919197083,0.0,0.0,0.0
1733392474129903,-5.860318163885071e-07,3.7002967823140277e-07,1.5498798036442184e-06,0.8539983630180359,0.0,0.0,0.0
1733392474190538,-6.031568945580359e-07,3.818808948341615e-07,1.5498798034453323e-06,0.8705392479896545,0.0,0.0,0.0
1733392474256455,-6.277537614940541e-07,3.990290572569117e-07,1.5498798031512054e-06,0.8612052798271179,0.0,0.0,0.0
1733392474324814,-6.457530425408885e-07,4.116741436531485e-07,1.5498798029295396e-06,0.8804644346237183,0.0,0.0,0.0
1733392474380087,-6.630459149465364e-07,4.239017085469684e-07,1.5498798027113643e-06,0.8474363684654236,0.0,0.0,0.0
1733392474436742,-6.870480789942641e-07,4.410044101957712e-07,1.549879802399933e-06,0.8584514260292053,0.0,0.0,0.0
1733392474499798,-7.040440123710843e-07,4.532092762288133e-07,1.5498798021732506e-06,0.8705846071243286,0.0,0.0,0.0
1733392474574454,-7.276304617784534e-07,4.7028019947252695e-07,1.5498798018500377e-06,0.859936535358429,0.0,0.0,0.0
1733392474630874,-7.44330718010447e-07,4.824625120819773e-07,1.5498798016150292e-06,0.8641795516014099,0.0,0.0,0.0
1733392474669469,-7.61462631660768e-07,4.950415376365087e-07,1.5498798013685928e-06,0.8625656962394714,0.0,0.0,0.0
1733392474737593,-7.784676845935662e-07,5.076110693436217e-07,1.5498798011185358e-06,0.8720266222953796,0.0,0.0,0.0
1733392474809024,-7.893713618593292e-07,5.157154062803821e-07,1.549879800955303e-06,0.8766334056854248,0.0,0.0,0.0
1733392474874694,-8.169367364634302e-07,5.363635792976835e-07,1.5498798005323623e-06,0.8650205731391907,0.0,0.0,0.0
1733392474929665,-8.324580346371678e-07,5.480932374929028e-07,1.5498798002876191e-06,0.8743773698806763,0.0,0.0,0.0
1733392474987285,-8.552680232661938e-07,5.654701964007479e-07,1.5498797999191284e-06,0.8625444173812866,0.0,0.0,0.0
1733392475048578,-8.710374188882512e-07,5.775828384525707e-07,1.5498797996581235e-06,0.8742685914039612,0.0,0.0,0.0
1733392475111989,-8.87727154553046e-07,5.904931898739542e-07,1.5498797993762076e-06,0.8732101321220398,0.0,0.0,0.0
1733392475168472,-9.037664291201881e-07,6.029904458394294e-07,1.54987979909968e-06,0.8700124025344849,0.0,0.0,0.0
1733392475234216,-9.207690685946451e-07,6.178211601455705e-07,1.5498797987614263e-06,0.8605096936225891,0.0,0.0,0.0
1733392475314787,-9.156422023124003e-07,6.213571852614058e-07,1.5498797986534264e-06,0.8752931356430054,0.0,0.0,0.0
1733392475371803,-8.92139193017248e-07,6.174227309488277e-07,1.549879798686715e-06,0.8662802577018738,0.0,0.0,0.0
1733392475428423,-8.307790668629863e-07,5.997887046964853e-07,1.5498797989520303e-06,0.8703714609146118,0.0,0.0,0.0
1733392475472367,-7.661554108580418e-07,5.785251613081123e-07,1.5498797992763507e-06,0.8685021996498108,0.0,0.0,0.0
1733392475542881,-6.811723855161003e-07,5.489644862078522e-07,1.5498797997029015e-06,0.8593382835388184,0.0,0.0,0.0
1733392475607067,-5.394356814438301e-07,4.976443968837787e-07,1.5498798003588705e-06,0.8714355230331421,0.0,0.0,0.0
1733392475656872,-3.9371493421257907e-07,4.4271666672417644e-07,1.54987980094339e-06,0.8699237108230591,0.0,0.0,0.0
1733392475727718,-1.7925290211677864e-07,3.599310942895629e-07,1.549879801582452e-06,0.8705132007598877,0.0,0.0,0.0
1733392475792872,1.5678289129080948e-07,2.2817272739603058e-07,1.5498798019851972e-06,0.8707508444786072,0.0,0.0,0.0
1733392475850280,4.63526110226727e-07,1.0676297317633547e-07,1.5498798016859487e-06,0.8611510396003723,0.0,0.0,0.0
1733392475908851,9.454722339815857e-07,-8.523800451598566e-08,1.5498797999020703e-06,0.8769434094429016,0.0,0.0,0.0
1733392475984079,1.3616482006779554e-06,-2.5182971683477217e-07,1.5498797970559938e-06,0.8735175132751465,0.0,0.0,0.0
1733392476041094,1.8900108817735417e-06,-4.6404221480168805e-07,1.5498797916875632e-06,0.8741276860237122,0.0,0.0,0.0
1733392476116062,2.6072745194697255e-06,-7.53025169067535e-07,1.54987978124346e-06,0.8634020686149597,0.0,0.0,0.0
1733392476175035,3.18759960780677e-06,-9.873898185349582e-07,1.5498797701246956e-06,0.8653060793876648,0.0,0.0,0.0
1733392476231437,3.861430652487798e-06,-1.259969658646918e-06,1.5498797542144181e-06,0.8694549202919006,0.0,0.0,0.0
1733392476309925,4.80838799982891e-06,-1.6435119738292786e-06,1.549879726413753e-06,0.8729257583618164,0.0,0.0,0.0
1733392476357687,5.624904389191219e-06,-1.9745317259787975e-06,1.5498796973344428e-06,0.8711400032043457,0.0,0.0,0.0
1733392476429705,6.454061036305216e-06,-2.310895754326188e-06,1.5498796629609327e-06,0.8705370426177979,0.0,0.0,0.0
1733392476484282,7.701334404265837e-06,-2.8171984798063703e-06,1.549879602055041e-06,0.875489354133606,0.0,0.0,0.0
1733392476545989,8.785644112572762e-06,-3.2575956583562884e-06,1.5498795401232883e-06,0.8716611862182617,0.0,0.0,0.0
1733392476618862,9.872007938904532e-06,-3.699009808641076e-06,1.549879469691829e-06,0.8671311140060425,0.0,0.0,0.0
1733392476683153,1.150643675156318e-05,-4.3633930541323515e-06,1.549879347916016e-06,0.8792076706886292,0.0,0.0,0.0
1733392476738095,1.2754971229029477e-05,-4.871097825977955e-06,1.54987924209006e-06,0.8656613230705261,0.0,0.0,0.0
1733392476804932,1.4161437983397423e-05,-5.443178518747501e-06,1.5498791095951771e-06,0.8806741237640381,0.0,0.0,0.0
1733392476858351,1.5610588710595682e-05,-6.032498828309497e-06,1.5498789584299866e-06,0.8750605583190918,0.0,0.0,0.0
1733392476926275,1.7618067421859975e-05,-6.848470398639733e-06,1.5498787245269662e-06,0.8714622855186462,0.0,0.0,0.0
1733392476984582,1.928050869712137e-05,-7.523906023089596e-06,1.549878509286867e-06,0.8825236558914185,0.0,0.0,0.0
1733392477031562,2.1152537196299983e-05,-8.284234710326137e-06,1.5498782435509519e-06,0.8686003088951111,0.0,0.0,0.0
1733392477109629,2.3563145703085706e-05,-9.262968529603905e-06,1.5498778649153484e-06,0.8708124160766602,0.0,0.0,0.0
1733392477165392,2.5472853594063816e-05,-1.003810071170523e-05,1.5498775358287732e-06,0.8632815480232239,0.0,0.0,0.0
1733392477230667,2.8223834687066017e-05,-1.1154395251605026e-05,1.54987701650821e-06,0.873717188835144,0.0,0.0,0.0
1733392477291963,3.0556361452667266e-05,-1.2100648507831628e-05,1.5498765343237408e-06,0.8701063990592957,0.0,0.0,0.0
1733392477353128,3.276841669028655e-05,-1.2997852376643593e-05,1.5498760415569652e-06,0.8688176870346069,0.0,0.0,0.0
1733392477412516,3.5067687508667673e-05,-1.3930269232006683e-05,1.5498754927475233e-06,0.8686527013778687,0.0,0.0,0.0
1733392477475666,3.8269050614360944e-05,-1.5228267462681432e-05,1.549874666463043e-06,0.8705960512161255,0.0,0.0,0.0
1733392477529550,4.094177704229082e-05,-1.6311738670006713e-05,1.5498739212088833e-06,0.8663070797920227,0.0,0.0,0.0
1733392477594229,4.451122790764281e-05,-1.7758487525918594e-05,1.5498728472771564e-06,0.8851049542427063,0.0,0.0,0.0
1733392477654321,4.7134321240409503e-05,-1.882151011601681e-05,1.5498720007467595e-06,0.8681456446647644,0.0,0.0,0.0
1733392477698226,5.01233495079025e-05,-2.0032687087900783e-05,1.5498709769220713e-06,0.8775575160980225,0.0,0.0,0.0
1733392477752802,5.321160972506235e-05,-2.1283928613371775e-05,1.5498698528762182e-06,0.8792670369148254,0.0,0.0,0.0
1733392477813822,5.772236564841003e-05,-2.3111272007676202e-05,1.5498680901227654e-06,0.8640049695968628,0.0,0.0,0.0
1733392477869075,6.083855573992758e-05,-2.4373517170401338e-05,1.5498667884854716e-06,0.8811706304550171,0.0,0.0,0.0
1733392477924876,6.436709883637687e-05,-2.5802657848865457e-05,1.5498652318781446e-06,0.8774968981742859,0.0,0.0,0.0
1733392477979367,6.867325152907827e-05,-2.754657454606999e-05,1.5498632131929097e-06,0.8638830780982971,0.0,0.0,0.0
1733392478028919,7.208597459518636e-05,-2.89285438630687e-05,1.5498615203972362e-06,0.8799557685852051,0.0,0.0,0.0
1733392478087066,7.582234348360818e-05,-3.04414570041547e-05,1.5498595728232733e-06,0.8735986351966858,0.0,0.0,0.0
1733392478140025,7.941531208329102e-05,-3.1896199826692195e-05,1.5498576070892345e-06,0.8803985118865967,0.0,0.0,0.0
1733392478203136,8.484276265780412e-05,-3.40935190131972e-05,1.549854464980517e-06,0.8727753162384033,0.0,0.0,0.0
1733392478273114,8.87793017483318e-05,-3.568711369919652e-05,1.5498520559629122e-06,0.8811413645744324,0.0,0.0,0.0
1733392478335495,9.386399885863519e-05,-3.774536498967965e-05,1.5498487824985506e-06,0.8765693306922913,0.0,0.0,0.0
1733392478410801,9.787560224597556e-05,-3.9369130147661754e-05,1.5498460711537417e-06,0.8773154020309448,0.0,0.0,0.0
1733392478462928,0.00010211255055912802,-4.1084014009558746e-05,1.5498430842219415e-06,0.8820394277572632,0.0,0.0,0.0
1733392478527963,0.00010800148935058733,-4.346738450201621e-05,1.5498387223396346e-06,0.8762128949165344,0.0,0.0,0.0
1733392478584752,0.00011216742630703341,-4.5153324824201756e-05,1.5498354889157504e-06,0.8898249864578247,0.0,0.0,0.0
1733392478639684,0.00011686453144928388,-4.70537635165502e-05,1.5498316971394278e-06,0.8838180303573608,0.0,0.0,0.0
1733392478723916,0.00012293492754778204,-4.950574831771952e-05,1.549826574591748e-06,0.8825172185897827,0.0,0.0,0.0
1733392478802806,0.00012779573952760681,-5.146541633509592e-05,1.5498222936578024e-06,0.875974178314209,0.0,0.0,0.0
1733392478858013,0.00013459751611167418,-5.420231334605471e-05,1.5498160363907237e-06,0.8838490843772888,0.0,0.0,0.0
1733392478929477,0.00013994677175977724,-5.635079436987334e-05,1.549810896603937e-06,0.8748292922973633,0.0,0.0,0.0
1733392478979380,0.00014491925343354948,-5.834508801480306e-05,1.549805946072547e-06,0.8755512237548828,0.0,0.0,0.0
1733392479040976,0.000150543750444806,-6.059780675910524e-05,1.5498001457578825e-06,0.8758490681648254,0.0,0.0,0.0
1733392479359990,0.0001774133878474883,-7.131653811286027e-05,1.5497695108259777e-06,0.8771765828132629,0.0,0.0,0.0
1733392479426916,0.00018320325098386715,-7.361736726649509e-05,1.5497622786617031e-06,0.8658812642097473,0.0,0.0,0.0
1733392479503441,0.00019179205892976838,-7.702545435329422e-05,1.5497511385281043e-06,0.8823944330215454,0.0,0.0,0.0
1733392479551570,0.00019849750273176172,-7.968232585929315e-05,1.5497420993357593e-06,0.8739036321640015,0.0,0.0,0.0
1733392479612168,0.00020642488648556464,-8.28192730234958e-05,1.5497310263200557e-06,0.8800956606864929,0.0,0.0,0.0
1733392479662899,0.00021343167404150085,-8.558847228800945e-05,1.5497208905404173e-06,0.8729421496391296,0.0,0.0,0.0
1733392479732618,0.00022080379652382462,-8.849877040680663e-05,1.5497098731711634e-06,0.8914815783500671,0.0,0.0,0.0
1733392479789927,0.00022763469790442197,-9.119257102903958e-05,1.5496993415315392e-06,0.880468487739563,0.0,0.0,0.0
1733392479850782,0.00023716890707106857,-9.494814431262984e-05,1.5496841225424473e-06,0.8846454620361328,0.0,0.0,0.0
1733392479915668,0.00024476925931117956,-9.793852405965519e-05,1.5496715572845707e-06,0.878665030002594,0.0,0.0,0.0
1733392479975557,0.0002525037677187843,-0.00010097783798754319,1.549658379740692e-06,0.8739185929298401,0.0,0.0,0.0
1733392480038547,0.00026037080176085893,-0.00010406516563497156,1.5496445737362094e-06,0.8803611993789673,0.0,0.0,0.0
1733392480095208,0.000271150817803317,-0.00010828936970295983,1.5496249965508605e-06,0.8778010606765747,0.0,0.0,0.0
1733392480181526,0.00027907090151674106,-0.00011138850711656028,1.5496101277854328e-06,0.8854911923408508,0.0,0.0,0.0
1733392480275158,0.00028685391756065907,-0.00011443057523968755,1.549595115990322e-06,0.8735854625701904,0.0,0.0,0.0
1733392480374678,0.0002976790763307437,-0.0001186563144045663,1.549573576999745e-06,0.8914651870727539,0.0,0.0,0.0
1733392480429119,0.0003057377560479254,-0.00012179825481540775,1.5495570444792101e-06,0.8878701329231262,0.0,0.0,0.0
1733392480505683,0.0003141874246209714,-0.00012508925955357446,1.5495392535333385e-06,0.8624632954597473,0.0,0.0,0.0
1733392480562727,0.00032303696278057983,-0.0001285318996409372,1.5495201232122105e-06,0.8768282532691956,0.0,0.0,0.0
1733392480624228,0.0003354093692686168,-0.00013333706548969323,1.5494925317808804e-06,0.8748818039894104,0.0,0.0,0.0
1733392480683023,0.000343980705255367,-0.00013666079449046458,1.5494728393424321e-06,0.8746892213821411,0.0,0.0,0.0
1733392480733513,0.00035324465234036744,-0.0001402485376065756,1.5494510243321914e-06,0.8836594223976135,0.0,0.0,0.0
1733392480805016,0.0003652969060029578,-0.00014490934532922903,1.549421817767812e-06,0.8844597935676575,0.0,0.0,0.0
1733392480866658,0.00037424573501422813,-0.000148365247154839,1.5493995283000552e-06,0.886707603931427,0.0,0.0,0.0
1733392480927793,0.0003836083663047364,-0.00015197678888139422,1.5493756579439278e-06,0.8820420503616333,0.0,0.0,0.0
1733392480994246,0.0003955539171362615,-0.0001565787284006564,1.5493443859785328e-06,0.8735113739967346,0.0,0.0,0.0
1733392481050426,0.000405181648706127,-0.0001602830905252355,1.5493185160321305e-06,0.8719468712806702,0.0,0.0,0.0
1733392481101255,0.0004152430956176897,-0.0001641500647742053,1.5492908460920644e-06,0.8822073340415955,0.0,0.0,0.0
1733392481174531,0.0004276746229060281,-0.0001689221607650504,1.549255763001657e-06,0.8717620968818665,0.0,0.0,0.0
1733392481249821,0.00044144077650046476,-0.0001764008386619828,1.5491989446418095e-06,0.8819708228111267,0.0,0.0,0.0
1733392481313173,0.0004777178080388057,-0.00020406410366393592,1.5489768320807933e-06,0.8834357261657715,0.0,0.0,0.0
1733392481357736,0.0005555262113288773,-0.0002685475855468852,1.548394939802598e-06,0.875726044178009,0.0,0.0,0.0
1733392481417728,0.0006384402940336103,-0.0003394571077312172,1.5476558434402412e-06,0.8778256773948669,0.0,0.0,0.0
1733392481477246,0.0007420928073333593,-0.00042944344333369365,1.5465714382587007e-06,0.8857792019844055,0.0,0.0,0.0
1733392481538549,0.0009298808956512726,-0.0005942453271632762,1.5441662382096456e-06,0.8742952942848206,0.0,0.0,0.0
1733392481602584,0.0010753769939751455,-0.0007224741887736422,1.5419220647113872e-06,0.8914864659309387,0.0,0.0,0.0
1733392481672364,0.001252287659785443,-0.0008787250178138244,1.538747850816196e-06,0.8776281476020813,0.0,0.0,0.0
1733392481723007,0.0014445270393249694,-0.0010488047629685,1.534744814439325e-06,0.8751285076141357,0.0,0.0,0.0
1733392481778360,0.0017330316909272266,-0.0013044487637248884,1.5276553541839515e-06,0.8865088224411011,0.0,0.0,0.0
1733392481831133,0.0019735492888097424,-0.001517835019693665,1.5207527266001918e-06,0.879734218120575,0.0,0.0,0.0
1733392481884121,0.002262016364594581,-0.0017739966240919885,1.5112838800357315e-06,0.8868887424468994,0.0,0.0,0.0
1733392481940544,0.0026452382828085924,-0.0021146038745483964,1.4966970094007409e-06,0.8847623467445374,0.0,0.0,0.0
1733392481998654,0.0029675353549146123,-0.002401269167465649,1.482655377630698e-06,0.8946060538291931,0.0,0.0,0.0
1733392482065091,0.0034286492259283114,-0.0028113247704924563,1.4597669200192978e-06,0.8881427645683289,0.0,0.0,0.0
1733392482112159,0.003792241491396448,-0.003134220523225807,1.4394195490122873e-06,0.8877248764038086,0.0,0.0,0.0
1733392482183378,0.00431150584670682,-0.003594815426015084,1.406846604064572e-06,0.8807780146598816,0.0,0.0,0.0
1733392482252845,0.00471260957965275,-0.003950234063408037,1.3788568515923483e-06,0.8861224055290222,0.0,0.0,0.0
1733392482323666,0.005164276668669477,-0.004350137563859568,1.3443878515306512e-06,0.8802069425582886,0.0,0.0,0.0
1733392482378233,0.005797988969157602,-0.004910741646870772,1.2907578399653137e-06,0.8870999217033386,0.0,0.0,0.0
1733392482438161,0.006287906269331084,-0.005343812329364772,1.245081606569412e-06,0.8843609094619751,0.0,0.0,0.0
1733392482497107,0.006799985856698873,-0.005796211946672543,1.1934109147650767e-06,0.888974130153656,0.0,0.0,0.0
1733392482552793,0.007535669303087282,-0.00644575060639684,1.1121515639883353e-06,0.880424439907074,0.0,0.0,0.0
1733392482616822,0.008100199637519689,-0.00694389536902665,1.0441796894071228e-06,0.8808327913284302,0.0,0.0,0.0
1733392482699171,0.00888738142012124,-0.007638155617193972,9.412585959615094e-07,0.8819582462310791,0.0,0.0,0.0
1733392482744784,0.00952558479127733,-0.008200390890534936,8.509166230362598e-07,0.881677508354187,0.0,0.0,0.0
1733392482805235,0.010233323444885388,-0.008822824519531461,7.435910211193263e-07,0.8762295842170715,0.0,0.0,0.0
1733392482869576,0.011130399533466633,-0.009610367804158217,5.967670169996529e-07,0.8829431533813477,0.0,0.0,0.0
1733392482908276,0.011807650012841992,-0.01020400436943309,4.779371646185926e-07,0.8853528499603271,0.0,0.0,0.0
1733392482980959,0.012532022302216731,-0.010838162035667485,3.432394432904158e-07,0.879059910774231,0.0,0.0,0.0
1733392483039174,0.013382197857391585,-0.011581524171790373,1.7513228518617264e-07,0.8776156306266785,0.0,0.0,0.0
1733392483108972,0.014475278313615603,-0.012535954588001464,-5.689139963226119e-08,0.8916311860084534,0.0,0.0,0.0
1733392483164155,0.015339900075177784,-0.013289964790517327,-2.530750009798852e-07,0.8882517218589783,0.0,0.0,0.0
1733392483225018,0.0161472499888639,-0.013993342973241507,-4.4634771961063204e-07,0.894123375415802,0.0,0.0,0.0
1733392483286598,0.017328832515523956,-0.015021152617801481,-7.466040789334262e-07,0.887698233127594,0.0,0.0,0.0
1733392483360360,0.018314487459469796,-0.015877059578744534,-1.0128307288442616e-06,0.8904447555541992,0.0,0.0,0.0
1733392483412206,0.019268536867032712,-0.01670436642461681,-1.2841655890916042e-06,0.8879756927490234,0.0,0.0,0.0
1733392483475353,0.020539836709349838,-0.017805173350130876,-1.666577534234096e-06,0.8850058913230896,0.0,0.0,0.0
1733392483547762,0.021489901267337137,-0.01862673081987565,-1.9679074717485462e-06,0.8873557448387146,0.0,0.0,0.0
1733392483608764,0.022565925768643663,-0.019556174653740595,-2.3252410536857904e-06,0.8918473720550537,0.0,0.0,0.0
1733392483676411,0.02395179190985559,-0.02075176287810498,-2.8105813723809205e-06,0.8985694050788879,0.0,0.0,0.0
1733392483752786,0.02502136000183237,-0.021673292745173166,-3.2044164606042523e-06,0.8755010962486267,0.0,0.0,0.0
1733392483799348,0.02615493652294783,-0.0226485282400275,-3.639953454394499e-06,0.8776276707649231,0.0,0.0,0.0
1733392483873032,0.02769854778620423,-0.023974293376442215,-4.263007249981556e-06,0.88775235414505,0.0,0.0,0.0
1733392483926671,0.028899212689999558,-0.025003873452310078,-4.771525175243266e-06,0.8892660140991211,0.0,0.0,0.0
1733392483988220,0.030531553756719038,-0.026401513675641194,-5.496382068241403e-06,0.8871651291847229,0.0,0.0,0.0
1733392484052283,0.031757960923642505,-0.027450107795886296,-6.066375069729309e-06,0.8977763652801514,0.0,0.0,0.0
1733392484112990,0.03296920206682026,-0.028484578428970165,-6.6506968143750656e-06,0.8895139694213867,0.0,0.0,0.0
1733392484185270,0.03472477899831714,-0.02998204514630834,-7.535309641518715e-06,0.895000159740448,0.0,0.0,0.0
1733392484252259,0.03608571064207988,-0.031141448359819794,-8.251748804501264e-06,0.9031891226768494,0.0,0.0,0.0
1733392484312922,0.0375661850866802,-0.03240136318412353,-9.061538416813228e-06,0.8865151405334473,0.0,0.0,0.0
1733392484381730,0.0394977659158052,-0.03404323911285044,-1.0165713291123103e-05,0.9023067951202393,0.0,0.0,0.0
1733392484445964,0.04095746663972924,-0.0352826495837609,-1.1035908768064027e-05,0.8938109874725342,0.0,0.0,0.0
1733392484498578,0.04234914319087025,-0.03646328077322638,-1.189421300649142e-05,0.8987159132957458,0.0,0.0,0.0
1733392484555994,0.043964192968846946,-0.037832012607261545,-1.292517560655398e-05,0.9002366065979004,0.0,0.0,0.0
1733392484639926,0.045968871418253086,-0.039528267941772985,-1.4256415558488422e-05,0.8876836895942688,0.0,0.0,0.0
1733392484718140,0.04818151769367842,-0.04139725563435485,-1.579200121775449e-05,0.8921908736228943,0.0,0.0,0.0
1733392484792426,0.04976057915415195,-0.04272912822230721,-1.6930359990393095e-05,0.9019635915756226,0.0,0.0,0.0
1733392484864123,0.05142280378513545,-0.044129511288053,-1.8166885532372475e-05,0.894230306148529,0.0,0.0,0.0
1733392484920697,0.05322636427295171,-0.045647174642746424,-1.9552869340837316e-05,0.8971966505050659,0.0,0.0,0.0
1733392484973511,0.05495264723094869,-0.047098159088424664,-2.0922655978082692e-05,0.8920642733573914,0.0,0.0,0.0
1733392485036856,0.0575137534266622,-0.04924803990645303,-2.3032659112554848e-05,0.897021472454071,0.0,0.0,0.0
1733392485095011,0.05919888855269383,-0.050660885217728005,-2.4471656271923358e-05,0.8961490392684937,0.0,0.0,0.0
1733392485156737,0.06103081934169828,-0.05219516969042878,-2.6081429360024192e-05,0.8918619155883789,0.0,0.0,0.0
1733392485242751,0.06344282855061312,-0.05421232434118969,-2.8272532021300383e-05,0.8931840062141418,0.0,0.0,0.0
1733392485286198,0.06541158804628094,-0.05585642966650011,-3.01212725264377e-05,0.899938702583313,0.0,0.0,0.0
1733392485347057,0.06728890726883607,-0.05742230522032193,-3.193460326905117e-05,0.8999149203300476,0.0,0.0,0.0
1733392485410267,0.06983958030290993,-0.05954706136580516,-3.447723358359523e-05,0.8837149739265442,0.0,0.0,0.0
1733392485468350,0.07172282149624201,-0.061113895661800616,-3.6412846101093196e-05,0.8792344927787781,0.0,0.0,0.0
1733392485541610,0.07376754861493655,-0.0628133142905837,-3.857050092682351e-05,0.8952971696853638,0.0,0.0,0.0
1733392485612124,0.076522028863287,-0.0650998588649396,-4.156935393243789e-05,0.9007875323295593,0.0,0.0,0.0
1733392485661358,0.07857369760683915,-0.06680102738300794,-4.387182777973273e-05,0.8950797319412231,0.0,0.0,0.0
1733392485717745,0.08135723586475838,-0.06910638077363462,-4.7089313580150225e-05,0.8931376934051514,0.0,0.0,0.0
1733392485781678,0.08355355240309992,-0.07092291902684118,-4.970352645481835e-05,0.8904181122779846,0.0,0.0,0.0
1733392485850774,0.08563924237598948,-0.07264598402913117,-5.224760820536973e-05,0.8943853974342346,0.0,0.0,0.0
1733392485910293,0.088565341622566,-0.07506025461420504,-5.591782979343979e-05,0.9024021625518799,0.0,0.0,0.0
1733392485987800,0.09079741590246755,-0.0768995884589731,-5.879682170042988e-05,0.9067090153694153,0.0,0.0,0.0
1733392486039407,0.09397631969662071,-0.07951588433075182,-6.301547566418307e-05,0.9004647731781006,0.0,0.0,0.0
1733392486103083,0.09628553656861923,-0.0814141160065385,-6.616720345915461e-05,0.8850858807563782,0.0,0.0,0.0
1733392486156929,0.09949344829685365,-0.08404805380696687,-7.06672674858424e-05,0.8964691758155823,0.0,0.0,0.0
1733392486221457,0.10179870895159557,-0.0859387594828052,-7.398849582799434e-05,0.9092742800712585,0.0,0.0,0.0
1733392486283244,0.1042961673292235,-0.08798521740671307,-7.766908993011547e-05,0.9036509394645691,0.0,0.0,0.0
1733392486331414,0.10765259514052505,-0.09073238813030397,-8.275025890451722e-05,0.8988212943077087,0.0,0.0,0.0
1733392486391257,0.11006495220035893,-0.09270423111816976,-8.64966549874885e-05,0.9019126892089844,0.0,0.0,0.0
1733392486450723,0.11276392533187186,-0.09490779648130585,-9.078159969353383e-05,0.9001640677452087,0.0,0.0,0.0
1733392486528212,0.11627881166033052,-0.09777364618245539,-9.650978681437465e-05,0.9002513289451599,0.0,0.0,0.0
1733392486569831,0.11880349366683463,-0.0998295576026808,-0.00010072745601600276,0.8971085548400879,0.0,0.0,0.0
1733392486631485,0.12144884006209186,-0.10198151481542898,-0.00010523925186981338,0.8854237198829651,0.0,0.0,0.0
1733392486687057,0.12502913127183055,-0.10489058001977013,-0.00011149644032480906,0.9084519743919373,0.0,0.0,0.0
1733392486751062,0.1286701798784823,-0.10784511824852847,-0.0001180376293948156,0.8940040469169617,0.0,0.0,0.0
1733392486807907,0.13144083840608228,-0.11009086357337619,-0.00012313525266593697,0.8992190361022949,0.0,0.0,0.0
1733392486871247,0.13433975609655838,-0.11243833875762523,-0.00012857993814424092,0.8997248411178589,0.0,0.0,0.0
1733392486949087,0.13727538630685715,-0.1148132378797065,-0.00013420915091142354,0.897091805934906,0.0,0.0,0.0
1733392487009078,0.14111953836090577,-0.11791915925776812,-0.0001417548543804109,0.8913074135780334,0.0,0.0,0.0
1733392487070448,0.14414256389750438,-0.12035855000194022,-0.00014782744635697767,0.8897902369499207,0.0,0.0,0.0
1733392487134616,0.14710449599257416,-0.12274610761713836,-0.00015389570677342646,0.9057750105857849,0.0,0.0,0.0
1733392487192073,0.15121040916417772,-0.1260518245348817,-0.0001625014600619055,0.9098353981971741,0.0,0.0,0.0
1733392487245801,0.15435930491973918,-0.12858402559091445,-0.00016925384939404928,0.8959830403327942,0.0,0.0,0.0
1733392487298871,0.15754645541858373,-0.13114443365979614,-0.00017622302918526695,0.8857008814811707,0.0,0.0,0.0
1733392487360545,0.16171543398999513,-0.13448986542950256,-0.00018554371774000568,0.8864354491233826,0.0,0.0,0.0
1733392487411262,0.16488396558758786,-0.13702975852224283,-0.00019278274468119785,0.9086793661117554,0.0,0.0,0.0
1733392487473640,0.16916440467279328,-0.1404573749606337,-0.00020277470255901798,0.906068742275238,0.0,0.0,0.0
1733392487542932,0.17252592498340466,-0.14314626580187423,-0.00021079250488487982,0.9039821624755859,0.0,0.0,0.0
1733392487606808,0.17692251047998916,-0.14665879284460367,-0.0002215040433762656,0.9034532904624939,0.0,0.0,0.0
1733392487668775,0.18015182115099906,-0.149235723980688,-0.0002295339640030713,0.9005757570266724,0.0,0.0,0.0
1733392487739260,0.18364268467963538,-0.1520185849702296,-0.00023836877957143188,0.8936132192611694,0.0,0.0,0.0
1733392487795492,0.18832127895059667,-0.15574391574428365,-0.00025046125414131346,0.9014094471931458,0.0,0.0,0.0
1733392487847859,0.19178912082114294,-0.15850207299381344,-0.0002596103664485259,0.8857770562171936,0.0,0.0,0.0
1733392487920457,0.19541204670906775,-0.16138084936445646,-0.0002693377236262018,0.8914325833320618,0.0,0.0,0.0
1733392487982394,0.2002653043408198,-0.16523303581439067,-0.0002826391575313439,0.9090332984924316,0.0,0.0,0.0
1733392488055096,0.20386094884974723,-0.16808401417769223,-0.00029269368406353104,0.9086940288543701,0.0,0.0,0.0
1733392488113206,0.20871387156536433,-0.17192791399905016,-0.00030653333320905925,0.8962352871894836,0.0,0.0,0.0
1733392488187423,0.21239939927854765,-0.17484367402783305,-0.0003172485641839576,0.9020656943321228,0.0,0.0,0.0
1733392488253325,0.2161247282868352,-0.1777878336686895,-0.00032825857174530003,0.908099889755249,0.0,0.0,0.0
1733392488318444,0.22115374684998174,-0.18175755697208665,-0.00034340705003013813,0.9034883975982666,0.0,0.0,0.0
1733392488388095,0.22497194575834426,-0.1847679822408707,-0.00035512728815665886,0.906658411026001,0.0,0.0,0.0
1733392488438751,0.22921793526931875,-0.18811225145202012,-0.00036838260400193516,0.8889721632003784,0.0,0.0,0.0
1733392488504280,0.23469157463400414,-0.19241829312231662,-0.000385815224649987,0.9048700928688049,0.0,0.0,0.0
1733392488563189,0.23864907898399373,-0.1955281164587253,-0.0003986610336466009,0.9053301215171814,0.0,0.0,0.0
1733392488629130,0.24264638502741712,-0.198666339155124,-0.00041184201177581106,0.9150426387786865,0.0,0.0,0.0
1733392488682661,0.24668349282899363,-0.20183296117043592,-0.0004253643019857015,0.8950439691543579,0.0,0.0,0.0
1733392488729098,0.2521282171922178,-0.20609930050271097,-0.000443935680448766,0.9004878401756287,0.0,0.0,0.0
1733392488806209,0.2579213321093409,-0.21063329397120423,-0.0004641168134661274,0.9027779698371887,0.0,0.0,0.0
1733392488868825,0.2622472426105727,-0.21401551701611166,-0.0004794700282295979,0.8963934779167175,0.0,0.0,0.0
1733392488918494,0.2666146871361883,-0.21742742882993216,-0.0004952168674265911,0.8958032131195068,0.0,0.0,0.0
1733392488986152,0.2708261492922812,-0.22072160878961875,-0.0005106670369753941,0.8984782695770264,0.0,0.0,0.0
1733392489044755,0.2765056161987917,-0.2251771338507948,-0.0005319487327147339,0.8939237594604492,0.0,0.0,0.0
1733392489103194,0.28060556899701644,-0.22840323448913097,-0.0005476334067188457,0.9154897332191467,0.0,0.0,0.0
1733392489165109,0.28465840512483537,-0.2316005692441047,-0.0005634057170201613,0.9035783410072327,0.0,0.0,0.0
1733392489226124,0.289988893986146,-0.2358189353506098,-0.0005845602193556133,0.9067971706390381,0.0,0.0,0.0
1733392489302808,0.293931791115943,-0.23894914977842982,-0.0006005110863126023,0.9082284569740295,0.0,0.0,0.0
1733392489365661,0.2979566193771368,-0.24215348459101566,-0.0006170624718882413,0.9165176153182983,0.0,0.0,0.0
1733392489431553,0.3112370382628527,-0.25568372337645356,-0.0006890918725574566,0.9007396697998047,0.0,0.0,0.0
1733392489491164,0.3617887268803175,-0.3135409191786319,-0.0010290037003854535,0.8863946795463562,0.0,0.0,0.0
1733392489556264,0.4542237411295374,-0.4206045814434377,-0.0017915315499038044,0.9070799946784973,0.0,0.0,0.0
1733392489613377,0.628672936746662,-0.6236274434526151,-0.0037104274826327667,0.8933534622192383,0.0,0.0,0.0
1733392489666244,0.8024722710006327,-0.8263431797000854,-0.0062425742002146,0.9012017250061035,0.0,0.0,0.0
1733392489720669,1.0284661441465262,-1.0902268235178367,-0.010459932787712505,0.8929901719093323,0.0,0.0,0.0
1733392489772355,1.2873995422403244,-1.392760439674091,-0.01657640490005088,0.9110525250434875,0.0,0.0,0.0
1733392489837952,1.6063461431992596,-1.7655049936529874,-0.02599487361872554,0.912924587726593,0.0,0.0,0.0
1733392489910727,2.0529918728255527,-2.2874054714526655,-0.04267729770207468,0.9217900633811951,0.0,0.0,0.0
1733392489966228,2.4452459287312616,-2.7453328472112464,-0.06067954176335702,0.9188655018806458,0.0,0.0,0.0
1733392490023274,2.878201922569412,-3.2501507130077583,-0.08418022058342504,0.9092064499855042,0.0,0.0,0.0
1733392490073951,3.497298745296824,-3.9706846738327637,-0.1243892683371771,0.9016632437705994,0.0,0.0,0.0
1733392490140245,4.006605373360686,-4.562096414693465,-0.16328024598260588,0.9022328853607178,0.0,0.0,0.0
1733392490210277,4.746208611091907,-5.418422995605042,-0.22906497002782247,0.9043245315551758,0.0,0.0,0.0
1733392490267105,5.367486916957999,-6.1351349570089795,-0.2928090236630464,0.9163878560066223,0.0,0.0,0.0
1733392490324441,5.987187068726862,-6.847340940129875,-0.36406847076207177,0.9063777327537537,0.0,0.0,0.0
1733392490381639,6.738295834683428,-7.706570296078082,-0.46065777793706736,0.908420741558075,0.0,0.0,0.0
1733392490442499,7.766346493819116,-8.874650660275124,-0.6108715412175736,0.917133629322052,0.0,0.0,0.0
1733392490501170,8.52439733912102,-9.729420368470954,-0.7348429732317773,0.9244353175163269,0.0,0.0,0.0
1733392490557849,9.637877759203166,-10.973277665798792,-0.9369400958121245,0.9310206174850464,0.0,0.0,0.0
1733392490614038,10.526828146862337,-11.955323313323374,-1.115108710419138,0.9368209838867188,0.0,0.0,0.0
1733392490687143,11.463483810662119,-12.978812405135832,-1.3187635942599418,0.9312451481819153,0.0,0.0,0.0
1733392490735944,12.858098483366307,-14.479921188993345,-1.6517415220027214,0.9499048590660095,0.0,0.0,0.0
1733392490793771,13.916365247426041,-15.59970234191221,-1.9276944071557924,0.9583824276924133,0.0,0.0,0.0
1733392490858120,15.028914011381946,-16.75797974308947,-2.2389765359839666,0.9785647392272949,0.0,0.0,0.0
1733392490918011,16.682617874801846,-18.44198843277198,-2.740738545056249,0.9795591831207275,0.0,0.0,0.0
1733392490981750,17.936555529927528,-19.687569388741434,-3.1514393918805657,0.9804444909095764,0.0,0.0,0.0
1733392491048553,19.345235331982174,-21.053393867084313,-3.6428959979799505,0.999413013458252,0.0,0.0,0.0
1733392491121262,21.3134652388752,-22.900577666972136,-4.38084866231604,1.0110563039779663,0.0,0.0,0.0
1733392491164487,22.96234775335282,-24.391798433072875,-5.043097938640925,1.0510162115097046,0.0,0.0,0.0
1733392491227450,24.54603621736173,-25.774898934408714,-5.715154670324125,1.0475705862045288,0.0,0.0,0.0
1733392491312147,26.85476112532361,-27.703452683859474,-6.754376173379379,1.0776511430740356,0.0,0.0,0.0
1733392491374856,28.720992665952796,-29.18627745761087,-7.643020688402938,1.1239008903503418,0.0,0.0,0.0
1733392491428922,30.700403683821378,-30.685312461398773,-8.630064048254349,1.1607165336608887,0.0,0.0,0.0
1733392491498520,33.579669718905905,-32.73261288291475,-10.141842201757118,1.2130790948867798,0.0,0.0,0.0
1733392491568996,35.78852470749854,-34.19877708972473,-11.3580136339482,1.2543890476226807,0.0,0.0,0.0
1733392491643416,39.033882436400575,-36.194270303000096,-13.22549577022934,1.3250519037246704,0.0,0.0,0.0
1733392491704226,41.501763977064954,-37.59028636147009,-14.704007826078845,1.3914977312088013,0.0,0.0,0.0
1733392491764614,44.31292620121345,-39.05851777838938,-16.443391719607128,1.4734747409820557,0.0,0.0,0.0
1733392491824896,47.3177241867158,-40.49115617458057,-18.361020313998548,1.5935251712799072,0.0,0.0,0.0
1733392491901184,51.61307045296276,-42.30902168585965,-21.194350780632924,1.73707914352417,0.0,0.0,0.0
1733392491952571,55.23765038389211,-43.646726275019965,-23.658155374644082,1.8813785314559937,0.0,0.0,0.0
1733392492019283,58.73982255518177,-44.7806787729679,-26.092896055629904,2.0830769538879395,0.0,0.0,0.0
1733392492081224,63.921311535210116,-46.19339474953107,-29.77679986679141,2.373586654663086,0.0,0.0,0.0
1733392492156498,69.51304548829305,-47.39097834805306,-33.83994217432027,2.771914482116699,0.0,0.0,0.0
1733392492212794,74.27283329438883,-48.1631950422308,-37.35301322478628,3.2799603939056396,0.0,0.0,0.0
1733392492270959,79.26766364175947,-48.744281556476174,-41.07844963221711,4.160035133361816,0.0,0.0,0.0
1733392492340602,85.62842366351192,-49.16074030552415,-45.85915538740456,5.671119213104248,0.0,0.0,0.0
1733392492399486,90.85084945329444,-49.239869698174076,-49.79772460950477,9.941068649291992,0.0,0.0,0.0
