timestamp,roll,pitch,yaw,altitude,roll_setpoint,pitch_setpoint,yaw_setpoint
1733381936683991,-1.7587034143808808e-07,3.1487126398102034e-08,-6.474901133621846e-07,0.8383286595344543,0.0,0.0,0.0
1733381936754468,-2.161180277570812e-07,3.868677284016244e-08,-6.474901159684917e-07,0.836121141910553,0.0,0.0,0.0
1733381936819749,-2.384879993769544e-07,4.2687736787388983e-08,-6.474901178477038e-07,0.8288230895996094,0.0,0.0,0.0
1733381936880515,-2.529276297589392e-07,4.526963626513069e-08,-6.474901195551785e-07,0.8290991187095642,0.0,0.0,0.0
1733381936935973,-2.608314561442785e-07,4.6681867959708375e-08,-6.474901212621544e-07,0.8252999186515808,0.0,0.0,0.0
1733381936998973,-2.6031691694646384e-07,4.65871199746217e-08,-6.474901233347113e-07,0.8318677544593811,0.0,0.0,0.0
1733381937050500,-2.5347229482806255e-07,4.536058099730473e-08,-6.474901246621591e-07,0.8255596160888672,0.0,0.0,0.0
1733381937111998,-2.415183183478582e-07,4.321982364811201e-08,-6.474901259527566e-07,0.8346274495124817,0.0,0.0,0.0
1733381937165844,-2.184500425219324e-07,3.908987530297762e-08,-6.474901275909774e-07,0.8125752210617065,0.0,0.0,0.0
1733381937215012,-1.9690597019144898e-07,3.523338818013667e-08,-6.474901287410456e-07,0.8227518796920776,0.0,0.0,0.0
1733381937274689,-1.7356435418898525e-07,3.1055478654728876e-08,-6.474901297872978e-07,0.8142211437225342,0.0,0.0,0.0
1733381937330483,-1.3907361424543676e-07,2.4882428911636698e-08,-6.474901311196072e-07,0.8134914636611938,0.0,0.0,0.0
1733381937392932,-1.1377290439484874e-07,2.0354435964071726e-08,-6.474901319991923e-07,0.8284926414489746,0.0,0.0,0.0
1733381937472133,-7.888282677724552e-08,1.4110555019602146e-08,-6.474901331339543e-07,0.8350513577461243,0.0,0.0,0.0
1733381937528353,-5.2658651200543454e-08,9.417720236947179e-09,-6.474901339551638e-07,0.8324605822563171,0.0,0.0,0.0
1733381937590740,-2.855459091243721e-08,5.104440555790105e-09,-6.474901347046481e-07,0.8362169861793518,0.0,0.0,0.0
1733381937648990,8.799400477632822e-10,-1.6246801718482133e-10,-6.47490135638973e-07,0.8349926471710205,0.0,0.0,0.0
1733381937703557,2.170096729920747e-08,-3.887925952602545e-09,-6.474901363360718e-07,0.8367099165916443,0.0,0.0,0.0
1733381937765027,4.4313599708647176e-08,-7.933717992927336e-09,-6.474901371678386e-07,0.833721935749054,0.0,0.0,0.0
1733381937831597,5.815463220980898e-08,-1.0409936309888214e-08,-6.474901377535088e-07,0.821047306060791,0.0,0.0,0.0
1733381937890792,6.84861005940522e-08,-1.2258122442452619e-08,-6.474901382695382e-07,0.8425449132919312,0.0,0.0,0.0
1733381937951033,7.878655472999045e-08,-1.4100472226180805e-08,-6.474901389494975e-07,0.8399502635002136,0.0,0.0,0.0
1733381938028214,8.312173913749112e-08,-1.4875609517488967e-08,-6.474901393973688e-07,0.8321365118026733,0.0,0.0,0.0
1733381938095396,8.522956004614654e-08,-1.525211731923858e-08,-6.474901398617287e-07,0.8428958058357239,0.0,0.0,0.0
1733381938158400,8.425234395763891e-08,-1.5076445871492802e-08,-6.474901404009648e-07,0.8346817493438721,0.0,0.0,0.0
1733381938219802,8.104856634428595e-08,-1.450257252952789e-08,-6.474901407895206e-07,0.8287930488586426,0.0,0.0,0.0
1733381938278542,7.405545528800869e-08,-1.3250518458275292e-08,-6.474901412670648e-07,0.8373510241508484,0.0,0.0,0.0
1733381938335259,6.731624130336442e-08,-1.2044150612553742e-08,-6.474901415921394e-07,0.8321189880371094,0.0,0.0,0.0
1733381938404345,5.8696760066173075e-08,-1.0501353788015643e-08,-6.474901419277186e-07,0.8384268283843994,0.0,0.0,0.0
1733381938488530,4.677677629878388e-08,-8.36797332305489e-09,-6.474901423149153e-07,0.8311191201210022,0.0,0.0,0.0
1733381938556268,3.726303447316986e-08,-6.665352783913093e-09,-6.474901425874165e-07,0.8122429847717285,0.0,0.0,0.0
1733381938612676,2.8249823873142068e-08,-5.0523781284797186e-09,-6.474901428276502e-07,0.8399608135223389,0.0,0.0,0.0
1733381938830255,-4.485057037346844e-09,8.052265369455215e-10,-6.474901436496614e-07,0.845226526260376,0.0,0.0,0.0
1733381938840967,-6.946416606125945e-09,1.2456267749201518e-09,-6.474901437133517e-07,0.8340806365013123,0.0,0.0,0.0
1733381938887802,-1.1599369347405129e-08,2.078140245531958e-09,-6.474901438370194e-07,0.8317493796348572,0.0,0.0,0.0
1733381938957162,-1.8046445755227673e-08,3.231611503525442e-09,-6.474901440192814e-07,0.8350575566291809,0.0,0.0,0.0
1733381939017410,-2.3337746054732167e-08,4.178239175640466e-09,-6.474901441852843e-07,0.8319160342216492,0.0,0.0,0.0
1733381939096733,-2.778093157281153e-08,4.973070829170206e-09,-6.47490144346684e-07,0.831064760684967,0.0,0.0,0.0
1733381939176183,-3.2193710910374995e-08,5.762339800433286e-09,-6.474901445545638e-07,0.8351381421089172,0.0,0.0,0.0
1733381939224500,-3.408918357081146e-08,6.10125674824331e-09,-6.474901446892829e-07,0.8385226726531982,0.0,0.0,0.0
1733381939302104,-3.5056246627095514e-08,6.2740416541740134e-09,-6.474901448160691e-07,0.8300601243972778,0.0,0.0,0.0
1733381939353343,-3.500576251700155e-08,6.2646661131206574e-09,-6.474901449735602e-07,0.8317604660987854,0.0,0.0,0.0
1733381939410150,-3.401854302873191e-08,6.087760512420828e-09,-6.474901450871277e-07,0.8289607763290405,0.0,0.0,0.0
1733381939494945,-3.1550758489152585e-08,5.645859848853718e-09,-6.47490145230052e-07,0.8395196795463562,0.0,0.0,0.0
1733381939552426,-2.9127514106743186e-08,5.212043128129472e-09,-6.474901453249662e-07,0.8393232226371765,0.0,0.0,0.0
1733381939626907,-2.6067375490283285e-08,4.664272481108362e-09,-6.47490145420084e-07,0.8327632546424866,0.0,0.0,0.0
1733381939679473,-2.2751613722076175e-08,4.070793585718986e-09,-6.474901455065842e-07,0.8267332911491394,0.0,0.0,0.0
1733381939743014,-1.8147698595825287e-08,3.2468082818522858e-09,-6.474901456105612e-07,0.8283147215843201,0.0,0.0,0.0
1733381939812272,-1.4462160855720131e-08,2.587225878912452e-09,-6.474901456856314e-07,0.8280500173568726,0.0,0.0,0.0
1733381939884493,-9.845529657325656e-09,1.7610490094803546e-09,-6.474901457737368e-07,0.8398333787918091,0.0,0.0,0.0
1733381939937598,-6.412317403902997e-09,1.1466791686501333e-09,-6.474901458370193e-07,0.8367244601249695,0.0,0.0,0.0
1733381939982038,-1.5172651162478465e-09,2.707549041143536e-10,-6.474901459270259e-07,0.8272444605827332,0.0,0.0,0.0
1733381940063855,1.3509497217703129e-09,-2.4246046249100043e-10,-6.474901459814505e-07,0.8441393375396729,0.0,0.0,0.0
1733381940109024,4.149804858453279e-09,-7.432425748476335e-10,-6.474901460376855e-07,0.8427620530128479,0.0,0.0,0.0
1733381940176971,6.470239405073353e-09,-1.1584009162679197e-09,-6.474901460887975e-07,0.8388575911521912,0.0,0.0,0.0
1733381940245966,8.791169022293416e-09,-1.5736149591246407e-09,-6.474901461482609e-07,0.8329708576202393,0.0,0.0,0.0
1733381940318417,1.0099617252481025e-08,-1.8076694655703917e-09,-6.47490146189836e-07,0.8487286567687988,0.0,0.0,0.0
1733381940379506,1.104077342494535e-08,-1.9759956383878848e-09,-6.474901462289817e-07,0.839704692363739,0.0,0.0,0.0
1733381940461612,1.175562002653151e-08,-2.1037913856135865e-09,-6.474901462788033e-07,0.8475762605667114,0.0,0.0,0.0
1733381940532529,1.18868061450952e-08,-2.127176370279825e-09,-6.474901463138367e-07,0.8362912535667419,0.0,0.0,0.0
1733381940602780,1.1697714748337545e-08,-2.0932538021961347e-09,-6.474901463467504e-07,0.8232575058937073,0.0,0.0,0.0
1733381940668002,1.1038468421653358e-08,-1.9751840504182554e-09,-6.474901463862956e-07,0.8306024074554443,0.0,0.0,0.0
1733381940729883,9.959296568106622e-09,-1.781982262719471e-09,-6.474901464236596e-07,0.8447563052177429,0.0,0.0,0.0
1733381940812378,9.001456136085268e-09,-1.6105281534504738e-09,-6.47490146448291e-07,0.8265722393989563,0.0,0.0,0.0
1733381940869061,7.844641031167277e-09,-1.4034745480041554e-09,-6.474901464730849e-07,0.8559396266937256,0.0,0.0,0.0
1733381940928409,6.4665750919292926e-09,-1.1568365249941806e-09,-6.474901464985661e-07,0.8349904417991638,0.0,0.0,0.0
1733381941005551,5.197165061311551e-09,-9.29656983422234e-10,-6.474901465196561e-07,0.8486852049827576,0.0,0.0,0.0
1733381941080349,3.4882841838822174e-09,-6.238426504172841e-10,-6.474901465458816e-07,0.8357524871826172,0.0,0.0,0.0
1733381941144831,1.7873822540691874e-09,-3.1947191037269834e-10,-6.474901465706776e-07,0.831434428691864,0.0,0.0,0.0
1733381941201940,5.767542449737377e-10,-1.0284380681309624e-10,-6.47490146588125e-07,0.834330677986145,0.0,0.0,0.0
1733381941244279,-5.073570606266608e-10,9.113786286446216e-11,-6.474901466040134e-07,0.8410657644271851,0.0,0.0,0.0
1733381941323240,-1.8759938901237334e-09,3.3601724234374854e-10,-6.474901466251907e-07,0.8487377762794495,0.0,0.0,0.0
1733381941388729,-2.70836592786356e-09,4.849373683832965e-10,-6.474901466393685e-07,0.8331020474433899,0.0,0.0,0.0
1733381941450203,-3.3808119556522354e-09,6.052367966473198e-10,-6.47490146652277e-07,0.839426577091217,0.0,0.0,0.0
1733381941506209,-4.0810466549966e-09,7.304933924505594e-10,-6.474901466687106e-07,0.8436164259910583,0.0,0.0,0.0
1733381941582130,-4.4238416655796114e-09,7.918001531725768e-10,-6.474901466795452e-07,0.845682680606842,0.0,0.0,0.0
1733381941654094,-4.717535907121323e-09,8.442999114449734e-10,-6.474901466954895e-07,0.8451641798019409,0.0,0.0,0.0
1733381941701536,-4.754301054250385e-09,8.508437503045799e-10,-6.474901467051222e-07,0.8468754291534424,0.0,0.0,0.0
1733381941754577,-4.6842197761268145e-09,8.382706787934371e-10,-6.474901467138983e-07,0.8363649249076843,0.0,0.0,0.0
1733381941845442,-4.499181044487672e-09,8.051256373463685e-10,-6.474901467230071e-07,0.8475289940834045,0.0,0.0,0.0
1733381941920244,-4.132091070619833e-09,7.393995989529773e-10,-6.474901467336006e-07,0.8425796627998352,0.0,0.0,0.0
1733381941980088,-3.750231597965296e-09,6.71042195207803e-10,-6.474901467414843e-07,0.8440871238708496,0.0,0.0,0.0
1733381942108672,-3.040635611688047e-09,5.44031693724494e-10,-6.474901467528341e-07,0.8383611440658569,0.0,0.0,0.0
1733381942170301,-2.2342890103211496e-09,3.997180601137813e-10,-6.474901467632979e-07,0.848177969455719,0.0,0.0,0.0
1733381942241841,-1.7307822247578445e-09,3.096098343632444e-10,-6.474901467691559e-07,0.8264046907424927,0.0,0.0,0.0
1733381942319074,-1.091732852237066e-09,1.9524997053296864e-10,-6.474901467761981e-07,0.8385690450668335,0.0,0.0,0.0
1733381942386572,-6.043305975733234e-10,1.0803168492466242e-10,-6.474901467814404e-07,0.839634895324707,0.0,0.0,0.0
1733381942458465,-1.9075267851673874e-10,3.402669124106211e-11,-6.474901467859103e-07,0.8410871028900146,0.0,0.0,0.0
1733381942531455,3.353399737559647e-10,-6.010721157175453e-11,-6.474901467918035e-07,0.8524656891822815,0.0,0.0,0.0
1733381942591300,6.798325374273364e-10,-1.2174404051832134e-10,-6.474901467959496e-07,0.8556730151176453,0.0,0.0,0.0
1733381942658265,9.650177694151416e-10,-1.7276674708333866e-10,-6.474901467997243e-07,0.8412622213363647,0.0,0.0,0.0
1733381942716286,1.27408964497213e-09,-2.2805836082472993e-10,-6.4749014680453e-07,0.8328930735588074,0.0,0.0,0.0
1733381942778204,1.4402941624300556e-09,-2.577877714628084e-10,-6.474901468078046e-07,0.833970844745636,0.0,0.0,0.0
1733381942833973,1.5565647813479126e-09,-2.785814041371845e-10,-6.474901468108884e-07,0.8496778607368469,0.0,0.0,0.0
1733381942907076,1.6382632261173825e-09,-2.93183988246835e-10,-6.474901468148144e-07,0.8318343758583069,0.0,0.0,0.0
1733381942974041,1.6387178729625475e-09,-2.932494862522523e-10,-6.474901468183454e-07,0.8416944742202759,0.0,0.0,0.0
1733381943060031,1.608961032261656e-09,-2.879164292613814e-10,-6.474901468201702e-07,0.8501814007759094,0.0,0.0,0.0
1733381943110271,1.5105929809860687e-09,-2.7030057503775243e-10,-6.474901468232137e-07,0.8236879706382751,0.0,0.0,0.0
1733381943217646,1.3969716417314808e-09,-2.4995925160416413e-10,-6.474901468254686e-07,0.8560751676559448,0.0,0.0,0.0
1733381943311439,1.208976058285428e-09,-2.1630800395131058e-10,-6.474901468282438e-07,0.8497070670127869,0.0,0.0,0.0
1733381943435505,1.0016653180605923e-09,-1.792031680312051e-10,-6.474901468306806e-07,0.845639169216156,0.0,0.0,0.0
1733381943532724,7.956150990261156e-10,-1.4232648589364982e-10,-6.474901468327671e-07,0.829932689666748,0.0,0.0,0.0
1733381943617412,5.958970393971729e-10,-1.065849322049864e-10,-6.474901468346045e-07,0.8491029739379883,0.0,0.0,0.0
1733381943662387,4.093430178930043e-10,-7.320067206427616e-11,-6.474901468362231e-07,0.8513117432594299,0.0,0.0,0.0
1733381943742912,2.4562236298837835e-10,-4.390361307757991e-11,-6.474901468376028e-07,0.8468828797340393,0.0,0.0,0.0
1733381943829828,3.410235797569088e-11,-6.054705130778992e-12,-6.474901468393797e-07,0.8474522233009338,0.0,0.0,0.0
1733381943894936,-1.1085026207687989e-10,1.988164204095813e-11,-6.474901468406266e-07,0.8460350036621094,0.0,0.0,0.0
1733381943961110,-3.096664685224323e-10,5.5455458169234255e-11,-6.474901468423506e-07,0.8496715426445007,0.0,0.0,0.0
1733381944041261,-7.180932455155473e-09,1.1647296309835572e-09,-6.474901466683711e-07,0.8540383577346802,0.0,0.0,0.0
1733381944094107,-1.1707946457709411e-07,1.886558794379533e-08,-6.47490143824494e-07,0.8563550710678101,0.0,0.0,0.0
1733381944143181,-4.967222518136722e-07,8.000771209540915e-08,-6.474901342514182e-07,0.8407237529754639,0.0,0.0,0.0
1733381944201255,-9.125903503505074e-07,1.4698254499363378e-07,-6.47490124227028e-07,0.8479464054107666,0.0,0.0,0.0
1733381944271172,-1.4960146048325563e-06,2.4094118501825223e-07,-6.474901109815009e-07,0.8341557383537292,0.0,0.0,0.0
1733381944332092,-2.3009073733559883e-06,3.7056588989731873e-07,-6.474900942769467e-07,0.8366525173187256,0.0,0.0,0.0
1733381944384717,-3.1502464236167373e-06,5.073491259255858e-07,-6.474900786226052e-07,0.8460180759429932,0.0,0.0,0.0
1733381944441816,-4.331754829422075e-06,6.976700351456449e-07,-6.474900601825337e-07,0.8508727550506592,0.0,0.0,0.0
1733381944522296,-5.275533649993444e-06,8.497435466859723e-07,-6.474900482346504e-07,0.8470285534858704,0.0,0.0,0.0
1733381944590637,-6.4534722956165325e-06,1.0396064163167318e-06,-6.474900367906846e-07,0.8450313210487366,0.0,0.0,0.0
1733381944645502,-7.306237693879956e-06,1.177097875754208e-06,-6.474900309102834e-07,0.8477110266685486,0.0,0.0,0.0
1733381944700739,-8.21666176386132e-06,1.3239235961906838e-06,-6.474900268622939e-07,0.8540402054786682,0.0,0.0,0.0
1733381944780437,-9.68257769555795e-06,1.5604172152278032e-06,-6.474900251865393e-07,0.8555375337600708,0.0,0.0,0.0
1733381944833262,-1.0560639854499992e-05,1.7021225368212e-06,-6.47490027045323e-07,0.8425040245056152,0.0,0.0,0.0
1733381944895502,-1.0882316472181132e-05,1.754045290875102e-06,-6.474900282633033e-07,0.8601107597351074,0.0,0.0,0.0
1733381944966176,-1.2342592678589826e-05,1.9898152709777366e-06,-6.474900374150675e-07,0.8367033004760742,0.0,0.0,0.0
1733381945032153,-1.3508655358260297e-05,2.1781560720838813e-06,-6.474900489906479e-07,0.8484877347946167,0.0,0.0,0.0
1733381945089758,-1.4440209820095366e-05,2.328665638374108e-06,-6.474900609652788e-07,0.8440151810646057,0.0,0.0,0.0
1733381945147016,-1.539966995333076e-05,2.483726938989812e-06,-6.474900758321479e-07,0.8515455722808838,0.0,0.0,0.0
1733381945199193,-1.6270844332516553e-05,2.6245581011421484e-06,-6.474900915591144e-07,0.8382676243782043,0.0,0.0,0.0
1733381945270529,-1.7459813450036117e-05,2.816821496649176e-06,-6.474901164471355e-07,0.8362987637519836,0.0,0.0,0.0
1733381945337944,-1.841541628556908e-05,2.9713973904773853e-06,-6.474901393166056e-07,0.8523916006088257,0.0,0.0,0.0
1733381945405041,-1.925417806917425e-05,3.1071096617722366e-06,-6.474901614960783e-07,0.8571547269821167,0.0,0.0,0.0
1733381945476777,-2.0467260747823756e-05,3.3034475880788095e-06,-6.474901970590634e-07,0.8558730483055115,0.0,0.0,0.0
1733381945530479,-2.1332534540489202e-05,3.4435362136244015e-06,-6.474902249451442e-07,0.8475054502487183,0.0,0.0,0.0
1733381945597781,-2.2254387037160724e-05,3.5928254848108624e-06,-6.474902569644651e-07,0.8577144145965576,0.0,0.0,0.0
1733381945673047,-2.3405158753424306e-05,3.779248016688022e-06,-6.474903002834402e-07,0.8511453866958618,0.0,0.0,0.0
1733381945718113,-2.4037355527515943e-05,3.8816915636066344e-06,-6.474903256649494e-07,0.853783905506134,0.0,0.0,0.0
1733381945840796,-2.6360538262048267e-05,4.258326646941809e-06,-6.474904285896738e-07,0.8407142758369446,0.0,0.0,0.0
1733381945903700,-2.7247805329666894e-05,4.4022447856232326e-06,-6.47490471906723e-07,0.8482520580291748,0.0,0.0,0.0
1733381945964563,-2.8362588137096496e-05,4.58312526762586e-06,-6.474905294745363e-07,0.8515165448188782,0.0,0.0,0.0
1733381946025374,-2.921900906522566e-05,4.722129268248904e-06,-6.474905760794537e-07,0.853299081325531,0.0,0.0,0.0
1733381946082414,-3.0074469725219933e-05,4.86101602392702e-06,-6.474906246970693e-07,0.8548604846000671,0.0,0.0,0.0
1733381946133701,-3.124204632691175e-05,5.050638312223399e-06,-6.474906943855455e-07,0.8588916063308716,0.0,0.0,0.0
1733381946199251,-3.2095234352320105e-05,5.18924758819852e-06,-6.474907477433352e-07,0.8613921999931335,0.0,0.0,0.0
1733381946258300,-3.2975853163551486e-05,5.332354001044561e-06,-6.474908049735101e-07,0.8454379439353943,0.0,0.0,0.0
1733381946317132,-3.408227203552614e-05,5.512213279576865e-06,-6.474908799857417e-07,0.8531277775764465,0.0,0.0,0.0
1733381946384285,-3.521537481810778e-05,5.696478504467365e-06,-6.474909603964653e-07,0.8575769066810608,0.0,0.0,0.0
1733381946441570,-3.603580683740286e-05,5.829940455215867e-06,-6.474910208870414e-07,0.8556675314903259,0.0,0.0,0.0
1733381946497256,-3.689571450875831e-05,5.971996981627886e-06,-6.474910869004172e-07,0.8595918416976929,0.0,0.0,0.0
1733381946552191,-3.754833990293494e-05,6.101150292194165e-06,-6.474911442667994e-07,0.8621742725372314,0.0,0.0,0.0
1733381946608989,-3.769423987271866e-05,6.158621711587245e-06,-6.474911652879581e-07,0.8581684827804565,0.0,0.0,0.0
1733381946661621,-3.751459645439054e-05,6.182840645023328e-06,-6.474911659697292e-07,0.8573826551437378,0.0,0.0,0.0
1733381946720796,-3.679502760402714e-05,6.1560165151666545e-06,-6.474911343141096e-07,0.8520974516868591,0.0,0.0,0.0
1733381946781012,-3.5920036605574544e-05,6.096432774351459e-06,-6.474910893019011e-07,0.8605058193206787,0.0,0.0,0.0
1733381946851065,-3.434228907753433e-05,5.968493873451894e-06,-6.474910056098886e-07,0.8561080694198608,0.0,0.0,0.0
1733381946923079,-3.278997618669424e-05,5.831248535960062e-06,-6.474909243145783e-07,0.8497913479804993,0.0,0.0,0.0
1733381946988346,-3.010937680383475e-05,5.579694959182097e-06,-6.474907903002155e-07,0.8545849919319153,0.0,0.0,0.0
1733381947043923,-2.6983780563122756e-05,5.263346936260797e-06,-6.474906467350981e-07,0.8455675840377808,0.0,0.0,0.0
1733381947094992,-2.2440295933684562e-05,4.78730322964242e-06,-6.474904684403195e-07,0.8386142253875732,0.0,0.0,0.0
1733381947165225,-1.6772050956129088e-05,4.182276336528137e-06,-6.474902996540275e-07,0.8409472107887268,0.0,0.0,0.0
1733381947232711,-6.73569657219228e-06,3.096723685221801e-06,-6.474901505972414e-07,0.856806755065918,0.0,0.0,0.0
1733381947291067,1.6245807617642682e-06,2.184773843000851e-06,-6.474901743111962e-07,0.8611580729484558,0.0,0.0,0.0
1733381947363263,1.5073405018295162e-05,7.092197288931664e-07,-6.474904964660523e-07,0.8601098656654358,0.0,0.0,0.0
1733381947402850,2.7433082644745925e-05,-6.529492773996129e-07,-6.474911026466117e-07,0.8429124355316162,0.0,0.0,0.0
1733381947462373,4.031244617105416e-05,-2.076688376142889e-06,-6.474920512299591e-07,0.8590459823608398,0.0,0.0,0.0
1733381947541794,5.949626800791216e-05,-4.20258427019412e-06,-6.474940653940478e-07,0.854694664478302,0.0,0.0,0.0
1733381947611498,8.273146938153884e-05,-6.781451268837019e-06,-6.474974683576128e-07,0.8563699722290039,0.0,0.0,0.0
1733381947668803,0.0001063415721824874,-9.404577560785188e-06,-6.475020054815851e-07,0.8446325659751892,0.0,0.0,0.0
1733381947732411,0.00012894831337036084,-1.19179015292609e-05,-6.475073685095215e-07,0.8686158061027527,0.0,0.0,0.0
1733381947796267,0.0001547262891043882,-1.4785234058823142e-05,-6.475146995056082e-07,0.8622336387634277,0.0,0.0,0.0
1733381947862630,0.000194901599675323,-1.925624698170694e-05,-6.475287069485406e-07,0.8569452166557312,0.0,0.0,0.0
1733381947914004,0.00022542389467755864,-2.2654367961030657e-05,-6.475414512816542e-07,0.8545489311218262,0.0,0.0,0.0
1733381947983030,0.0002736579903199976,-2.8026188219630544e-05,-6.475652921374989e-07,0.8626167178153992,0.0,0.0,0.0
1733381948037059,0.0003123171988436125,-3.233290850451304e-05,-6.47587673242428e-07,0.8731402158737183,0.0,0.0,0.0
1733381948096571,0.00035510783886722835,-3.71003659730869e-05,-6.476158387620846e-07,0.8560759425163269,0.0,0.0,0.0
1733381948152954,0.00040011655248927644,-4.211280754302741e-05,-6.476492944652613e-07,0.8609818816184998,0.0,0.0,0.0
1733381948217882,0.00046351724524510557,-4.917010777190675e-05,-6.477030785469281e-07,0.8596920967102051,0.0,0.0,0.0
1733381948279670,0.0005329178627823588,-5.689178398613767e-05,-6.477708781980234e-07,0.8518229722976685,0.0,0.0,0.0
1733381948342654,0.0005869851384617558,-6.290544184977702e-05,-6.478301623551385e-07,0.8687615990638733,0.0,0.0,0.0
1733381948391860,0.0006462355113524165,-6.949395019281939e-05,-6.479016304734239e-07,0.8608840107917786,0.0,0.0,0.0
1733381948460779,0.0007304859427237266,-7.885995697063747e-05,-6.480149584465265e-07,0.8613430857658386,0.0,0.0,0.0
1733381948510032,0.0007976112168900396,-8.632045879429157e-05,-6.48115087176556e-07,0.8606048226356506,0.0,0.0,0.0
1733381948564599,0.0008729314626986172,-9.46902405169817e-05,-6.482378253086269e-07,0.8656994104385376,0.0,0.0,0.0
1733381948621903,0.0009724817022626744,-0.00010575040605691968,-6.484168966389694e-07,0.8620144724845886,0.0,0.0,0.0
1733381948681496,0.0010564688042732624,-0.00011507970299630856,-6.485828881682951e-07,0.8628267645835876,0.0,0.0,0.0
1733381948755695,0.001139318926908324,-0.0001242772821183729,-6.487599290238952e-07,0.8501207232475281,0.0,0.0,0.0
1733381948815964,0.0012654677780280638,-0.00013826991361788146,-6.490547922891863e-07,0.859365701675415,0.0,0.0,0.0
1733381948877881,0.0013491312797658745,-0.00014754334731577237,-6.49267192017197e-07,0.8635403513908386,0.0,0.0,0.0
1733381948936215,0.0014827457386672206,-0.0001623441526476964,-6.496342578197378e-07,0.8488753437995911,0.0,0.0,0.0
1733381949013977,0.0015820371926829721,-0.0001733364786566759,-6.499292170102973e-07,0.8682482242584229,0.0,0.0,0.0
1733381949117832,0.0017291778796193118,-0.00018961742272924825,-6.504011018202377e-07,0.8658616542816162,0.0,0.0,0.0
1733381949213815,0.001849524142017378,-0.0002029268710814782,-6.508179323759271e-07,0.8651981353759766,0.0,0.0,0.0
1733381949275786,0.00198280107286561,-0.0002176590320049436,-6.513119281804287e-07,0.861432671546936,0.0,0.0,0.0
1733381949342280,0.002109925796766065,-0.00023169765104632162,-6.518145738613013e-07,0.8554933667182922,0.0,0.0,0.0
1733381949423131,0.002282082816294088,-0.00025068899977912233,-6.525441540276442e-07,0.8621318936347961,0.0,0.0,0.0
1733381949482006,0.002426400076715579,-0.0002665935617391246,-6.531990820379979e-07,0.8515447974205017,0.0,0.0,0.0
1733381949544219,0.002562248626806617,-0.0002815533441837643,-6.538516847481393e-07,0.8622509837150574,0.0,0.0,0.0
1733381949608307,0.0027725367582612727,-0.0003046911458121705,-6.549309366307779e-07,0.8506962060928345,0.0,0.0,0.0
1733381949671106,0.002930702865004987,-0.0003220802814598413,-6.557979640359723e-07,0.8687528371810913,0.0,0.0,0.0
1733381949723228,0.0031104980840222065,-0.00034183469214126163,-6.568411893204353e-07,0.8625192642211914,0.0,0.0,0.0
1733381949783591,0.0033080791038929114,-0.0003635293114804739,-6.58058325937459e-07,0.8716523051261902,0.0,0.0,0.0
1733381949844847,0.003478394648534902,-0.00038221959160792546,-6.591669192781969e-07,0.8626320958137512,0.0,0.0,0.0
1733381949900865,0.0036599101879479655,-0.000402126963800984,-6.604088262983285e-07,0.856532096862793,0.0,0.0,0.0
1733381949966337,0.003909248691228941,-0.00042944173723645556,-6.622155420468257e-07,0.8671607375144958,0.0,0.0,0.0
1733381950043778,0.0041176467413001835,-0.00045224603086496115,-6.638150184019398e-07,0.8581511974334717,0.0,0.0,0.0
1733381950101807,0.004306461862203312,-0.0004728893533096757,-6.653344891570195e-07,0.8471442461013794,0.0,0.0,0.0
1733381950169281,0.00458933433301259,-0.0005037869679712023,-6.677359200875639e-07,0.859735369682312,0.0,0.0,0.0
1733381950224243,0.004727950985821425,-0.0005189161078914483,-6.689674466018698e-07,0.8783275485038757,0.0,0.0,0.0
1733381950279205,0.0050200123870304085,-0.0005507698698827795,-6.716800886207858e-07,0.8565283417701721,0.0,0.0,0.0
1733381950345162,0.005315181099909951,-0.0005829336526720091,-6.745839658341664e-07,0.8580984473228455,0.0,0.0,0.0
1733381950397426,0.005535496858637281,-0.0006069236824107482,-6.768578104846512e-07,0.8779218196868896,0.0,0.0,0.0
1733381950453608,0.005784767620176075,-0.0006340502882614315,-6.79540115102817e-07,0.8705753684043884,0.0,0.0,0.0
1733381950513915,0.006105307745305811,-0.0006689000176466139,-6.831593726072938e-07,0.8767560720443726,0.0,0.0,0.0
1733381950585682,0.006351993130768837,-0.0006956809500186684,-6.860732420052627e-07,0.8658269047737122,0.0,0.0,0.0
1733381950636414,0.006697811449006748,-0.0007331695845776914,-6.90345989050021e-07,0.8679108023643494,0.0,0.0,0.0
1733381950691190,0.006965940444174552,-0.0007621955415982285,-6.938097406858552e-07,0.8784841299057007,0.0,0.0,0.0
1733381950759298,0.007230877819883741,-0.0007908434355389211,-6.973616532768312e-07,0.8641775250434875,0.0,0.0,0.0
1733381950807675,0.007592478237936557,-0.0008298947928779719,-7.024169574840608e-07,0.8703940510749817,0.0,0.0,0.0
1733381950889791,0.007963622180303224,-0.0008699223392626321,-7.078545993811519e-07,0.8609286546707153,0.0,0.0,0.0
1733381950953096,0.008277000417153901,-0.0009036799523428359,-7.126421591543695e-07,0.8667054176330566,0.0,0.0,0.0
1733381951014080,0.008675397589657128,-0.000946546778430951,-7.189878685846771e-07,0.8564799427986145,0.0,0.0,0.0
1733381951192026,0.00980423859566387,-0.001067736596466245,-7.385426622207103e-07,0.8682334423065186,0.0,0.0,0.0
1733381951214452,0.009909476242034166,-0.001079011849683923,-7.404834933220873e-07,0.8713057041168213,0.0,0.0,0.0
1733381951235137,0.010025894229714671,-0.0010914794824864564,-7.426536885741171e-07,0.865522563457489,0.0,0.0,0.0
1733381951294111,0.010336111474036545,-0.0011246743713250367,-7.485553812522849e-07,0.8799694180488586,0.0,0.0,0.0
1733381951369765,0.010815915456011462,-0.0011759408133322992,-7.58023429021902e-07,0.8611657619476318,0.0,0.0,0.0
1733381951422112,0.011160567572167285,-0.0012127131059566885,-7.650792555127201e-07,0.8732516765594482,0.0,0.0,0.0
1733381951486688,0.011510682633632153,-0.0012500250084990186,-7.724648550909688e-07,0.8743906021118164,0.0,0.0,0.0
1733381951551158,0.011970516201328755,-0.0012989667413092693,-7.824984139871025e-07,0.8602470755577087,0.0,0.0,0.0
1733381951611826,0.01232136025595263,-0.0013362626251061593,-7.904083315474856e-07,0.8598636388778687,0.0,0.0,0.0
1733381951695349,0.012809121133624075,-0.0013880509422764043,-8.017708759793649e-07,0.866486132144928,0.0,0.0,0.0
1733381951756696,0.013172073485349668,-0.0014265428396994916,-8.105019262436312e-07,0.8646561503410339,0.0,0.0,0.0
1733381952035140,0.01546997325888395,-0.001669419065952149,-8.712283010804686e-07,0.8561073541641235,0.0,0.0,0.0
1733381952043823,0.01560218584390427,-0.0016833440255394506,-8.750055518048545e-07,0.8720802068710327,0.0,0.0,0.0
1733381952087882,0.015748235855097853,-0.0016987193224625703,-8.792135549373453e-07,0.8593708872795105,0.0,0.0,0.0
1733381952152610,0.016271250946555266,-0.001753720010187965,-8.94587555640886e-07,0.8678691983222961,0.0,0.0,0.0
1733381952211732,0.01681610564173774,-0.0018109222219503905,-9.111100201680455e-07,0.8613317608833313,0.0,0.0,0.0
1733381952264424,0.01723034818741218,-0.0018543497114564648,-9.240172681985203e-07,0.8736462593078613,0.0,0.0,0.0
1733381952316959,0.017677499009555165,-0.0019011691517218593,-9.382846071179583e-07,0.874595582485199,0.0,0.0,0.0
1733381952366971,0.018258394506236196,-0.0019619059934643354,-9.573378972481278e-07,0.8566506505012512,0.0,0.0,0.0
1733381952427675,0.018689121537680348,-0.0020068809275121404,-9.718437262550047e-07,0.8721926808357239,0.0,0.0,0.0
1733381952494166,0.019124635956540903,-0.002052304156288818,-9.868375272661529e-07,0.8589805364608765,0.0,0.0,0.0
1733381952550060,0.019564771998739898,-0.0020981468924102607,-1.0023201205756513e-06,0.8744063973426819,0.0,0.0,0.0
1733381952608802,0.020173687685483718,-0.0021614635636912553,-1.024283858640708e-06,0.8726672530174255,0.0,0.0,0.0
1733381952659881,0.020624647770228616,-0.0022082793708994874,-1.0409567237658814e-06,0.8665860891342163,0.0,0.0,0.0
1733381952730412,0.021233042277387183,-0.0022713400243992306,-1.0639979431703804e-06,0.8716579079627991,0.0,0.0,0.0
1733381952786551,0.02170262037353679,-0.002321336018617264,-1.0827406643464989e-06,0.8709816932678223,0.0,0.0,0.0
1733381952838243,0.023103992844611045,-0.002603316301387263,-1.1931948040911194e-06,0.8739657402038574,0.0,0.0,0.0
1733381952913642,0.024994732111855374,-0.003048467414700773,-1.3801124893007372e-06,0.8814310431480408,0.0,0.0,0.0
1733381952979939,0.027704634809353618,-0.0037188674693724045,-1.6884892552174811e-06,0.8608506321907043,0.0,0.0,0.0
1733381953050577,0.03233689115993953,-0.004899905072259068,-2.3074582644700005e-06,0.8614805340766907,0.0,0.0,0.0
1733381953102650,0.036963978000880096,-0.0061010999643311345,-3.0339480394838034e-06,0.871599018573761,0.0,0.0,0.0
1733381953178378,0.0420456150191293,-0.007434181311798391,-3.953117579384037e-06,0.8692607879638672,0.0,0.0,0.0
1733381953243149,0.049940744358464954,-0.009523177422413362,-5.630128039302475e-06,0.8759433031082153,0.0,0.0,0.0
1733381953296833,0.05670180138982983,-0.011323590155034695,-7.30565096833789e-06,0.873649001121521,0.0,0.0,0.0
1733381953362109,0.06710591079602955,-0.014108059139609616,-1.0314150892516753e-05,0.8767719864845276,0.0,0.0,0.0
1733381953412198,0.07557037980483511,-0.016382478905711793,-1.3145976708472554e-05,0.8769393563270569,0.0,0.0,0.0
1733381953468766,0.0850731368883376,-0.018943122570080934,-1.6735663848746043e-05,0.8556039929389954,0.0,0.0,0.0
1733381953533755,0.09847036729179999,-0.02256318285484859,-2.2534017085967615e-05,0.8678181767463684,0.0,0.0,0.0
1733381953602630,0.10935800067016903,-0.025511892627673022,-2.788187814630101e-05,0.8796161413192749,0.0,0.0,0.0
1733381953678965,0.12499857416310144,-0.029755648175604815,-3.656092485061875e-05,0.8676831722259521,0.0,0.0,0.0
1733381953734899,0.13825203094697622,-0.03332560561015184,-4.4761187281661994e-05,0.8751987218856812,0.0,0.0,0.0
1733381953799178,0.1570765255259365,-0.03833231096083432,-5.7662573379698875e-05,0.8712064623832703,0.0,0.0,0.0
1733381953857579,0.17302045017966985,-0.042525477362317377,-6.974052143996015e-05,0.8720699548721313,0.0,0.0,0.0
1733381953912907,0.18958102778382985,-0.046844216806406866,-8.3405325391605e-05,0.8747014403343201,0.0,0.0,0.0
1733381953980486,0.21463472420893012,-0.05332147146828726,-0.0001062510875932768,0.8712871670722961,0.0,0.0,0.0
1733381954038486,0.2351867235227979,-0.05859403847055253,-0.00012694708470978324,0.8804293274879456,0.0,0.0,0.0
1733381954115296,0.25560373894816535,-0.0638021776971427,-0.00014925240914507505,0.8854169249534607,0.0,0.0,0.0
1733381954178777,0.2853060495744072,-0.07133487219809229,-0.0001848070793556549,0.876545786857605,0.0,0.0,0.0
1733381954237337,0.30835583166029573,-0.07715018539020131,-0.00021493355914167222,0.8622148036956787,0.0,0.0,0.0
1733381954291002,0.3325190429139156,-0.08322218595181113,-0.000248891647555264,0.8799652457237244,0.0,0.0,0.0
1733381954363599,0.3664971655697877,-0.09172147649555287,-0.00030073605962945384,0.8590803146362305,0.0,0.0,0.0
1733381954430720,0.39513528553388627,-0.09885373320121472,-0.0003481399216841782,0.8794893622398376,0.0,0.0,0.0
1733381954486636,0.43178739764957247,-0.10794615936094056,-0.0004137520916791176,0.8669734001159668,0.0,0.0,0.0
1733381954549967,0.4612891209653013,-0.11523934364499322,-0.000470592003855065,0.8618403077125549,0.0,0.0,0.0
1733381954612785,0.5034472683186074,-0.12562717757566338,-0.0005580457537993828,0.8782775402069092,0.0,0.0,0.0
1733381954655061,0.5367330883616702,-0.1338037885617065,-0.0006322680503383781,0.8654897212982178,0.0,0.0,0.0
1733381954716265,0.5701013454068339,-0.14198095968779467,-0.0007112523687313522,0.87503582239151,0.0,0.0,0.0
1733381954779824,0.6081199209467877,-0.15127612602030857,-0.0008068265839762036,0.8844885230064392,0.0,0.0,0.0
1733381954833861,0.6572719814366051,-0.16326286270756432,-0.0009391946805992498,0.8795697093009949,0.0,0.0,0.0
1733381954893759,0.6971148975972533,-0.17295635964765838,-0.0010537687601847208,0.8723003268241882,0.0,0.0,0.0
1733381954954462,0.7357113933425387,-0.18232222548141386,-0.001170882212908496,0.8736250400543213,0.0,0.0,0.0
1733381955017806,0.7890810895350332,-0.19523378741552688,-0.001342694802884605,0.8680486083030701,0.0,0.0,0.0
1733381955080585,0.8319422023441453,-0.20557332122334307,-0.0014889674850483087,0.8807770609855652,0.0,0.0,0.0
1733381955162626,0.8877242795207525,-0.21899422204837007,-0.0016903866938003298,0.8789573311805725,0.0,0.0,0.0
1733381955207273,0.933542376243509,-0.22999045867771442,-0.001865169943805935,0.8760973215103149,0.0,0.0,0.0
1733381955264742,0.9791293218758229,-0.2409088551870475,-0.0020474277559011413,0.8824797868728638,0.0,0.0,0.0
1733381955325236,1.0275242554220618,-0.25247728528426505,-0.002250027172107239,0.878533661365509,0.0,0.0,0.0
1733381955382958,1.0902682912445218,-0.2674441019791112,-0.0025266628845605644,0.8782989382743835,0.0,0.0,0.0
1733381955436975,1.1416203001562737,-0.2796690440754157,-0.0027647976177632774,0.8821237683296204,0.0,0.0,0.0
1733381955504930,1.208084565017295,-0.2954617167647784,-0.0030886727311730386,0.884855329990387,0.0,0.0,0.0
1733381955560147,1.262393711213695,-0.3083430410363567,-0.003366425838150122,0.8778800964355469,0.0,0.0,0.0
1733381955620907,1.3180436675773481,-0.32151933786784775,-0.0036631889377249875,0.875619649887085,0.0,0.0,0.0
1733381955669081,1.3919300606901535,-0.3389705434970273,-0.004075970201118611,0.8917092084884644,0.0,0.0,0.0
1733381955722793,1.4527289185722874,-0.3532964691825289,-0.00443167810258318,0.8884114027023315,0.0,0.0,0.0
1733381955775910,1.5130601541472286,-0.3674840279563001,-0.0047989581862466915,0.8923459649085999,0.0,0.0,0.0
1733381955821540,1.5909629698141126,-0.3857652078640426,-0.00529427990719278,0.8774071931838989,0.0,0.0,0.0
1733381955885336,1.6524064104799865,-0.400155402188591,-0.005701691814062819,0.8768615126609802,0.0,0.0,0.0
1733381955938456,1.7172849035231394,-0.41532462606665643,-0.006147896503904011,0.8898256421089172,0.0,0.0,0.0
1733381955993542,1.8030821000212465,-0.435347325018972,-0.006763218423073297,0.8815473914146423,0.0,0.0,0.0
1733381956044043,1.8711892935113839,-0.4512132162130832,-0.00727213002695384,0.8841831684112549,0.0,0.0,0.0
1733381956105547,1.9384584742520463,-0.4668591452601943,-0.007792491069292909,0.8795992136001587,0.0,0.0,0.0
1733381956167722,2.0466398310064635,-0.49196266971217045,-0.008665875763960303,0.8884196281433105,0.0,0.0,0.0
1733381956209937,2.1150944321360376,-0.5078127322626682,-0.009241790004105242,0.8714367747306824,0.0,0.0,0.0
1733381956269036,2.1897084570444716,-0.5250601850582973,-0.009890043782940087,0.8854361772537231,0.0,0.0,0.0
1733381956333265,2.2658088808938066,-0.5426219877341192,-0.010573247074472394,0.8808460235595703,0.0,0.0,0.0
1733381956395670,2.3636594562698563,-0.5651622437987628,-0.011484398618116207,0.880915641784668,0.0,0.0,0.0
1733381956458186,2.466462985348055,-0.5887969699088464,-0.012481253854971895,0.8820300698280334,0.0,0.0,0.0
1733381956515220,2.545189840231972,-0.6068661500279782,-0.013272051748056148,0.8827850222587585,0.0,0.0,0.0
1733381956586064,2.6307005832863872,-0.6264641335249264,-0.014157906203010743,0.8806735873222351,0.0,0.0,0.0
1733381956656212,2.7426663834826974,-0.6520749599092006,-0.015359780893132205,0.8820855021476746,0.0,0.0,0.0
1733381956707009,2.8235223093761372,-0.6705335082386634,-0.016257150868667216,0.8756906986236572,0.0,0.0,0.0
1733381956781556,2.9086143400136253,-0.6899280098363726,-0.017228182937488245,0.8668479919433594,0.0,0.0,0.0
1733381956834572,3.0039163853403674,-0.7116135564262183,-0.018348154561089583,0.8845182061195374,0.0,0.0,0.0
1733381956893878,3.1248041517368295,-0.7390690741911369,-0.019818071802479145,0.8682852387428284,0.0,0.0,0.0
1733381956955827,3.224102018105222,-0.7615800113365357,-0.021066661544559523,0.8858528733253479,0.0,0.0,0.0
1733381957013775,3.3159192092475336,-0.7823636675940805,-0.022254228571810395,0.8881434202194214,0.0,0.0,0.0
1733381957080427,3.4469565298043916,-0.8119737923313376,-0.02400392431848892,0.8801355957984924,0.0,0.0,0.0
1733381957134256,3.5424196034048654,-0.8335017330753163,-0.025318756030346588,0.8943256735801697,0.0,0.0,0.0
1733381957200762,3.672149637463552,-0.8626990553990999,-0.02715961162890646,0.8855379819869995,0.0,0.0,0.0
1733381957268036,3.7746131990593,-0.8857145962697355,-0.028657559677626777,0.8761023879051208,0.0,0.0,0.0
1733381957325301,3.8719863515786743,-0.9075515024002713,-0.030117058337750517,0.8792126774787903,0.0,0.0,0.0
1733381957401339,4.02253125080266,-0.9412482838704783,-0.032442484877969094,0.8831424117088318,0.0,0.0,0.0
1733381957453468,4.12360376459056,-0.9638296008535181,-0.03405068192300125,0.8831331133842468,0.0,0.0,0.0
1733381957509279,4.236837741908564,-0.9890897309842538,-0.03589716416296941,0.8842303156852722,0.0,0.0,0.0
